[
  {
    "id": 2743477,
    "name": "Zwolle",
    "coord": {
      "lon": 6.09444,
      "lat": 52.512501
    }
  },
  {
    "id": 2743478,
    "name": "Zwolle",
    "coord": {
      "lon": 6.65556,
      "lat": 52.03167
    }
  },
  {
    "id": 2743493,
    "name": "Zwijndrecht",
    "coord": {
      "lon": 4.63333,
      "lat": 51.817501
    }
  },
  {
    "id": 2743561,
    "name": "Zwartebroek",
    "coord": {
      "lon": 5.50417,
      "lat": 52.179169
    }
  },
  {
    "id": 2743590,
    "name": "De Westereen",
    "coord": {
      "lon": 6.0363,
      "lat": 53.257309
    }
  },
  {
    "id": 2743608,
    "name": "Zutphen",
    "coord": {
      "lon": 6.20139,
      "lat": 52.138329
    }
  },
  {
    "id": 2743619,
    "name": "Zundert",
    "coord": {
      "lon": 4.65556,
      "lat": 51.471668
    }
  },
  {
    "id": 2743680,
    "name": "Zuidlaren",
    "coord": {
      "lon": 6.68194,
      "lat": 53.09417
    }
  },
  {
    "id": 2743694,
    "name": "Zuidhorn",
    "coord": {
      "lon": 6.40278,
      "lat": 53.24667
    }
  },
  {
    "id": 2743698,
    "name": "Provincie Zuid-Holland",
    "coord": {
      "lon": 4.66667,
      "lat": 52.0
    }
  },
  {
    "id": 2743856,
    "name": "Zoetermeer",
    "coord": {
      "lon": 4.49306,
      "lat": 52.057499
    }
  },
  {
    "id": 2743877,
    "name": "Zijtaart",
    "coord": {
      "lon": 5.54167,
      "lat": 51.592499
    }
  },
  {
    "id": 2743949,
    "name": "Zevenaar",
    "coord": {
      "lon": 6.07083,
      "lat": 51.93
    }
  },
  {
    "id": 2743952,
    "name": "Zetten",
    "coord": {
      "lon": 5.71389,
      "lat": 51.928329
    }
  },
  {
    "id": 2743963,
    "name": "Zelhem",
    "coord": {
      "lon": 6.34861,
      "lat": 52.006672
    }
  },
  {
    "id": 2743977,
    "name": "Zeist",
    "coord": {
      "lon": 5.23333,
      "lat": 52.09
    }
  },
  {
    "id": 2743986,
    "name": "Zegwaart",
    "coord": {
      "lon": 4.50769,
      "lat": 52.066929
    }
  },
  {
    "id": 2743997,
    "name": "Zeewolde",
    "coord": {
      "lon": 5.54167,
      "lat": 52.330002
    }
  },
  {
    "id": 2744002,
    "name": "Zeesse",
    "coord": {
      "lon": 6.4375,
      "lat": 52.511669
    }
  },
  {
    "id": 2744011,
    "name": "Provincie Zeeland",
    "coord": {
      "lon": 3.75,
      "lat": 51.416672
    }
  },
  {
    "id": 2744014,
    "name": "Zeeland",
    "coord": {
      "lon": 5.67639,
      "lat": 51.697498
    }
  },
  {
    "id": 2744042,
    "name": "Zandvoort",
    "coord": {
      "lon": 4.53409,
      "lat": 52.37487
    }
  },
  {
    "id": 2744102,
    "name": "Zaltbommel",
    "coord": {
      "lon": 5.24444,
      "lat": 51.810001
    }
  },
  {
    "id": 2744114,
    "name": "Zaanstad",
    "coord": {
      "lon": 4.81356,
      "lat": 52.453129
    }
  },
  {
    "id": 2744118,
    "name": "Zaandam",
    "coord": {
      "lon": 4.82643,
      "lat": 52.438541
    }
  },
  {
    "id": 2744122,
    "name": "Zaamslag",
    "coord": {
      "lon": 3.9125,
      "lat": 51.3125
    }
  },
  {
    "id": 2744129,
    "name": "Yerseke",
    "coord": {
      "lon": 4.05,
      "lat": 51.4925
    }
  },
  {
    "id": 2744130,
    "name": "Yde",
    "coord": {
      "lon": 6.59306,
      "lat": 53.115829
    }
  },
  {
    "id": 2744147,
    "name": "Wâlterswâld",
    "coord": {
      "lon": 6.03333,
      "lat": 53.299999
    }
  },
  {
    "id": 2744153,
    "name": "Woudsend",
    "coord": {
      "lon": 5.62843,
      "lat": 52.943569
    }
  },
  {
    "id": 2744156,
    "name": "Woudrichem",
    "coord": {
      "lon": 5.00139,
      "lat": 51.814999
    }
  },
  {
    "id": 2744163,
    "name": "Woudenberg",
    "coord": {
      "lon": 5.41667,
      "lat": 52.08083
    }
  },
  {
    "id": 2744179,
    "name": "Workum",
    "coord": {
      "lon": 5.4471,
      "lat": 52.979691
    }
  },
  {
    "id": 2744191,
    "name": "Wommels",
    "coord": {
      "lon": 5.58749,
      "lat": 53.108829
    }
  },
  {
    "id": 2744194,
    "name": "Wolvega",
    "coord": {
      "lon": 5.99691,
      "lat": 52.87545
    }
  },
  {
    "id": 2744219,
    "name": "Wolfheze",
    "coord": {
      "lon": 5.79028,
      "lat": 52.00333
    }
  },
  {
    "id": 2744248,
    "name": "Woerden",
    "coord": {
      "lon": 4.88333,
      "lat": 52.084999
    }
  },
  {
    "id": 2744257,
    "name": "Woensdrecht",
    "coord": {
      "lon": 4.30355,
      "lat": 51.42897
    }
  },
  {
    "id": 2744324,
    "name": "Wisch",
    "coord": {
      "lon": 6.41705,
      "lat": 51.926479
    }
  },
  {
    "id": 2744327,
    "name": "Wirdum",
    "coord": {
      "lon": 5.80387,
      "lat": 53.14893
    }
  },
  {
    "id": 2744332,
    "name": "Winterswijk",
    "coord": {
      "lon": 6.71944,
      "lat": 51.9725
    }
  },
  {
    "id": 2744337,
    "name": "Winsum",
    "coord": {
      "lon": 6.52083,
      "lat": 53.330002
    }
  },
  {
    "id": 2744338,
    "name": "Winsum",
    "coord": {
      "lon": 5.63359,
      "lat": 53.151901
    }
  },
  {
    "id": 2744344,
    "name": "Winschoten",
    "coord": {
      "lon": 7.03472,
      "lat": 53.144169
    }
  },
  {
    "id": 2744373,
    "name": "Wilp",
    "coord": {
      "lon": 6.15,
      "lat": 52.21833
    }
  },
  {
    "id": 2744388,
    "name": "Willemstad",
    "coord": {
      "lon": 4.43889,
      "lat": 51.691669
    }
  },
  {
    "id": 2744483,
    "name": "Wijk bij Duurstede",
    "coord": {
      "lon": 5.34167,
      "lat": 51.974171
    }
  },
  {
    "id": 2744489,
    "name": "Wijhe",
    "coord": {
      "lon": 6.13472,
      "lat": 52.386669
    }
  },
  {
    "id": 2744514,
    "name": "Wijchen",
    "coord": {
      "lon": 5.725,
      "lat": 51.80917
    }
  },
  {
    "id": 2744549,
    "name": "Wierden",
    "coord": {
      "lon": 6.59306,
      "lat": 52.359169
    }
  },
  {
    "id": 2744608,
    "name": "West-Terschelling",
    "coord": {
      "lon": 5.21482,
      "lat": 53.359112
    }
  },
  {
    "id": 2744642,
    "name": "Westkapelle",
    "coord": {
      "lon": 3.44028,
      "lat": 51.529171
    }
  },
  {
    "id": 2744675,
    "name": "Westervoort",
    "coord": {
      "lon": 5.97222,
      "lat": 51.95583
    }
  },
  {
    "id": 2744741,
    "name": "Westerhaar-Vriezenveensewijk",
    "coord": {
      "lon": 6.62361,
      "lat": 52.45583
    }
  },
  {
    "id": 2744769,
    "name": "Westerbork",
    "coord": {
      "lon": 6.60833,
      "lat": 52.849998
    }
  },
  {
    "id": 2744800,
    "name": "Westdorpe",
    "coord": {
      "lon": 3.82639,
      "lat": 51.232498
    }
  },
  {
    "id": 2744820,
    "name": "Wervershoof",
    "coord": {
      "lon": 5.15833,
      "lat": 52.73
    }
  },
  {
    "id": 2744827,
    "name": "Werkendam",
    "coord": {
      "lon": 4.89444,
      "lat": 51.810001
    }
  },
  {
    "id": 2744859,
    "name": "Wellerlooi",
    "coord": {
      "lon": 6.13611,
      "lat": 51.534168
    }
  },
  {
    "id": 2744869,
    "name": "Welberg",
    "coord": {
      "lon": 4.33056,
      "lat": 51.576672
    }
  },
  {
    "id": 2744871,
    "name": "Wekerom",
    "coord": {
      "lon": 5.71389,
      "lat": 52.112499
    }
  },
  {
    "id": 2744904,
    "name": "Weesp",
    "coord": {
      "lon": 5.04167,
      "lat": 52.307499
    }
  },
  {
    "id": 2744911,
    "name": "Weert",
    "coord": {
      "lon": 5.70694,
      "lat": 51.251671
    }
  },
  {
    "id": 2744946,
    "name": "Weberbuurt",
    "coord": {
      "lon": 4.66667,
      "lat": 52.316669
    }
  },
  {
    "id": 2744991,
    "name": "Wassenaar",
    "coord": {
      "lon": 4.40278,
      "lat": 52.145828
    }
  },
  {
    "id": 2744994,
    "name": "Waspik",
    "coord": {
      "lon": 4.94444,
      "lat": 51.686668
    }
  },
  {
    "id": 2744998,
    "name": "Warten",
    "coord": {
      "lon": 5.9,
      "lat": 53.150002
    }
  },
  {
    "id": 2745003,
    "name": "Warnsveld",
    "coord": {
      "lon": 6.23056,
      "lat": 52.137501
    }
  },
  {
    "id": 2745018,
    "name": "Warga",
    "coord": {
      "lon": 5.84404,
      "lat": 53.151451
    }
  },
  {
    "id": 2745048,
    "name": "Wanneperveen",
    "coord": {
      "lon": 6.12222,
      "lat": 52.705002
    }
  },
  {
    "id": 2745088,
    "name": "Wageningen",
    "coord": {
      "lon": 5.66667,
      "lat": 51.970001
    }
  },
  {
    "id": 2745096,
    "name": "Waddinxveen",
    "coord": {
      "lon": 4.65139,
      "lat": 52.044998
    }
  },
  {
    "id": 2745123,
    "name": "Waalwijk",
    "coord": {
      "lon": 5.07083,
      "lat": 51.682499
    }
  },
  {
    "id": 2745127,
    "name": "Waalre",
    "coord": {
      "lon": 5.44444,
      "lat": 51.386669
    }
  },
  {
    "id": 2745154,
    "name": "Vught",
    "coord": {
      "lon": 5.2875,
      "lat": 51.653332
    }
  },
  {
    "id": 2745169,
    "name": "Vroomshoop",
    "coord": {
      "lon": 6.56528,
      "lat": 52.460831
    }
  },
  {
    "id": 2745182,
    "name": "Vriezenveen",
    "coord": {
      "lon": 6.62222,
      "lat": 52.408329
    }
  },
  {
    "id": 2745189,
    "name": "Vries",
    "coord": {
      "lon": 6.57778,
      "lat": 53.074169
    }
  },
  {
    "id": 2745196,
    "name": "Vreeland",
    "coord": {
      "lon": 5.03194,
      "lat": 52.23
    }
  },
  {
    "id": 2745271,
    "name": "Voorthuizen",
    "coord": {
      "lon": 5.60556,
      "lat": 52.186668
    }
  },
  {
    "id": 2745297,
    "name": "Voorst",
    "coord": {
      "lon": 6.14167,
      "lat": 52.169998
    }
  },
  {
    "id": 2745301,
    "name": "Voorschoten",
    "coord": {
      "lon": 4.44861,
      "lat": 52.127499
    }
  },
  {
    "id": 2745311,
    "name": "Voorhout",
    "coord": {
      "lon": 4.48472,
      "lat": 52.221668
    }
  },
  {
    "id": 2745312,
    "name": "Voorhof",
    "coord": {
      "lon": 4.35773,
      "lat": 51.993622
    }
  },
  {
    "id": 2745321,
    "name": "Voorburg",
    "coord": {
      "lon": 4.35972,
      "lat": 52.074169
    }
  },
  {
    "id": 2745333,
    "name": "Vollenhove",
    "coord": {
      "lon": 5.95417,
      "lat": 52.680828
    }
  },
  {
    "id": 2745338,
    "name": "Volkel",
    "coord": {
      "lon": 5.65417,
      "lat": 51.642502
    }
  },
  {
    "id": 2745340,
    "name": "Volendam",
    "coord": {
      "lon": 5.07083,
      "lat": 52.494999
    }
  },
  {
    "id": 2745369,
    "name": "Voerendaal",
    "coord": {
      "lon": 5.92978,
      "lat": 50.88327
    }
  },
  {
    "id": 2745382,
    "name": "Vlodrop",
    "coord": {
      "lon": 6.07639,
      "lat": 51.133331
    }
  },
  {
    "id": 2745388,
    "name": "Vlist",
    "coord": {
      "lon": 4.81944,
      "lat": 51.98
    }
  },
  {
    "id": 2745392,
    "name": "Vlissingen",
    "coord": {
      "lon": 3.57361,
      "lat": 51.442501
    }
  },
  {
    "id": 2745461,
    "name": "Vlagtwedde",
    "coord": {
      "lon": 7.10833,
      "lat": 53.0275
    }
  },
  {
    "id": 2745467,
    "name": "Vlaardingen",
    "coord": {
      "lon": 4.34167,
      "lat": 51.912498
    }
  },
  {
    "id": 2745580,
    "name": "Vianen",
    "coord": {
      "lon": 5.09167,
      "lat": 51.9925
    }
  },
  {
    "id": 2745634,
    "name": "Venray",
    "coord": {
      "lon": 5.975,
      "lat": 51.525002
    }
  },
  {
    "id": 2745641,
    "name": "Venlo",
    "coord": {
      "lon": 6.16806,
      "lat": 51.369999
    }
  },
  {
    "id": 2745645,
    "name": "Venhuizen",
    "coord": {
      "lon": 5.20278,
      "lat": 52.662498
    }
  },
  {
    "id": 2745673,
    "name": "Velsen-Zuid",
    "coord": {
      "lon": 4.65,
      "lat": 52.459999
    }
  },
  {
    "id": 2745677,
    "name": "Velp",
    "coord": {
      "lon": 5.97361,
      "lat": 51.994999
    }
  },
  {
    "id": 2745706,
    "name": "Veldhoven",
    "coord": {
      "lon": 5.40278,
      "lat": 51.418331
    }
  },
  {
    "id": 2745726,
    "name": "Veghel",
    "coord": {
      "lon": 5.54861,
      "lat": 51.616669
    }
  },
  {
    "id": 2745739,
    "name": "Veere",
    "coord": {
      "lon": 3.66667,
      "lat": 51.548328
    }
  },
  {
    "id": 2745743,
    "name": "Feanwâlden",
    "coord": {
      "lon": 5.98832,
      "lat": 53.23558
    }
  },
  {
    "id": 2745774,
    "name": "Veenendaal",
    "coord": {
      "lon": 5.55891,
      "lat": 52.028629
    }
  },
  {
    "id": 2745783,
    "name": "Veendam",
    "coord": {
      "lon": 6.87917,
      "lat": 53.10667
    }
  },
  {
    "id": 2745800,
    "name": "Varsseveld",
    "coord": {
      "lon": 6.45833,
      "lat": 51.943329
    }
  },
  {
    "id": 2745860,
    "name": "Valkenswaard",
    "coord": {
      "lon": 5.45972,
      "lat": 51.35083
    }
  },
  {
    "id": 2745874,
    "name": "Valkenburg",
    "coord": {
      "lon": 5.83056,
      "lat": 50.86417
    }
  },
  {
    "id": 2745885,
    "name": "Valburg",
    "coord": {
      "lon": 5.79028,
      "lat": 51.911671
    }
  },
  {
    "id": 2745892,
    "name": "Vaassen",
    "coord": {
      "lon": 5.96667,
      "lat": 52.285831
    }
  },
  {
    "id": 2745895,
    "name": "Vaartkant",
    "coord": {
      "lon": 4.66667,
      "lat": 51.566669
    }
  },
  {
    "id": 2745906,
    "name": "Vaals",
    "coord": {
      "lon": 6.01806,
      "lat": 50.770828
    }
  },
  {
    "id": 2745909,
    "name": "Provincie Utrecht",
    "coord": {
      "lon": 5.25,
      "lat": 52.0
    }
  },
  {
    "id": 2745912,
    "name": "Utrecht",
    "coord": {
      "lon": 5.12222,
      "lat": 52.090832
    }
  },
  {
    "id": 2745926,
    "name": "Urmond",
    "coord": {
      "lon": 5.77222,
      "lat": 50.990829
    }
  },
  {
    "id": 2745932,
    "name": "Urk",
    "coord": {
      "lon": 5.60139,
      "lat": 52.662498
    }
  },
  {
    "id": 2745944,
    "name": "Ulrum",
    "coord": {
      "lon": 6.33333,
      "lat": 53.359169
    }
  },
  {
    "id": 2745961,
    "name": "Uitweg",
    "coord": {
      "lon": 5.01667,
      "lat": 51.982498
    }
  },
  {
    "id": 2745968,
    "name": "Uithuizermeeden",
    "coord": {
      "lon": 6.72361,
      "lat": 53.414169
    }
  },
  {
    "id": 2745973,
    "name": "Uithoorn",
    "coord": {
      "lon": 4.82639,
      "lat": 52.237499
    }
  },
  {
    "id": 2745978,
    "name": "Uitgeest",
    "coord": {
      "lon": 4.70972,
      "lat": 52.529171
    }
  },
  {
    "id": 2746005,
    "name": "Uden",
    "coord": {
      "lon": 5.61944,
      "lat": 51.660831
    }
  },
  {
    "id": 2746009,
    "name": "Uddel",
    "coord": {
      "lon": 5.78056,
      "lat": 52.259171
    }
  },
  {
    "id": 2746012,
    "name": "Ubbergen",
    "coord": {
      "lon": 5.90139,
      "lat": 51.837502
    }
  },
  {
    "id": 2746014,
    "name": "Ubachsberg",
    "coord": {
      "lon": 5.94861,
      "lat": 50.853329
    }
  },
  {
    "id": 2746023,
    "name": "Tzummarum",
    "coord": {
      "lon": 5.54612,
      "lat": 53.237331
    }
  },
  {
    "id": 2746024,
    "name": "Tzum",
    "coord": {
      "lon": 5.56277,
      "lat": 53.158989
    }
  },
  {
    "id": 2746031,
    "name": "'t Zand",
    "coord": {
      "lon": 4.75556,
      "lat": 52.83667
    }
  },
  {
    "id": 2746038,
    "name": "Tynaarlo",
    "coord": {
      "lon": 6.61667,
      "lat": 53.077499
    }
  },
  {
    "id": 2746051,
    "name": "Twijzelerheide",
    "coord": {
      "lon": 6.04591,
      "lat": 53.24015
    }
  },
  {
    "id": 2746052,
    "name": "Twijzel",
    "coord": {
      "lon": 6.08952,
      "lat": 53.231522
    }
  },
  {
    "id": 2746060,
    "name": "Twello",
    "coord": {
      "lon": 6.10278,
      "lat": 52.236671
    }
  },
  {
    "id": 2746066,
    "name": "Tweesluizen",
    "coord": {
      "lon": 5.3625,
      "lat": 51.890831
    }
  },
  {
    "id": 2746120,
    "name": "Tuk",
    "coord": {
      "lon": 6.09444,
      "lat": 52.796669
    }
  },
  {
    "id": 2746133,
    "name": "Tubbergen",
    "coord": {
      "lon": 6.78472,
      "lat": 52.407501
    }
  },
  {
    "id": 2746199,
    "name": "Toom",
    "coord": {
      "lon": 5.55972,
      "lat": 51.27
    }
  },
  {
    "id": 2746215,
    "name": "Tongelre",
    "coord": {
      "lon": 5.51978,
      "lat": 51.448891
    }
  },
  {
    "id": 2746222,
    "name": "Tolsteeg",
    "coord": {
      "lon": 5.11667,
      "lat": 52.066669
    }
  },
  {
    "id": 2746301,
    "name": "Tilburg",
    "coord": {
      "lon": 5.0913,
      "lat": 51.555511
    }
  },
  {
    "id": 2746304,
    "name": "Tijnje",
    "coord": {
      "lon": 5.99193,
      "lat": 53.030579
    }
  },
  {
    "id": 2746311,
    "name": "Tytsjerk",
    "coord": {
      "lon": 5.90961,
      "lat": 53.213428
    }
  },
  {
    "id": 2746331,
    "name": "Tiel",
    "coord": {
      "lon": 5.42917,
      "lat": 51.886669
    }
  },
  {
    "id": 2746351,
    "name": "Tholen",
    "coord": {
      "lon": 4.22083,
      "lat": 51.53167
    }
  },
  {
    "id": 2746354,
    "name": "'t Hofke",
    "coord": {
      "lon": 5.51926,
      "lat": 51.449429
    }
  },
  {
    "id": 2746400,
    "name": "Terwinselen",
    "coord": {
      "lon": 6.02471,
      "lat": 50.866589
    }
  },
  {
    "id": 2746407,
    "name": "Terschuur",
    "coord": {
      "lon": 5.51667,
      "lat": 52.165001
    }
  },
  {
    "id": 2746420,
    "name": "Terneuzen",
    "coord": {
      "lon": 3.82778,
      "lat": 51.335831
    }
  },
  {
    "id": 2746424,
    "name": "Ternaard",
    "coord": {
      "lon": 5.96523,
      "lat": 53.38203
    }
  },
  {
    "id": 2746504,
    "name": "Tegelen",
    "coord": {
      "lon": 6.13611,
      "lat": 51.34417
    }
  },
  {
    "id": 2746557,
    "name": "Surhuizum",
    "coord": {
      "lon": 6.17981,
      "lat": 53.20475
    }
  },
  {
    "id": 2746558,
    "name": "Surhuisterveen",
    "coord": {
      "lon": 6.17031,
      "lat": 53.184769
    }
  },
  {
    "id": 2746565,
    "name": "Sumar",
    "coord": {
      "lon": 6.0,
      "lat": 53.183331
    }
  },
  {
    "id": 2746596,
    "name": "Stroe",
    "coord": {
      "lon": 5.69167,
      "lat": 52.185829
    }
  },
  {
    "id": 2746609,
    "name": "Strijen",
    "coord": {
      "lon": 4.55083,
      "lat": 51.745209
    }
  },
  {
    "id": 2746623,
    "name": "Streefkerk",
    "coord": {
      "lon": 4.74306,
      "lat": 51.900002
    }
  },
  {
    "id": 2746705,
    "name": "Stiens",
    "coord": {
      "lon": 5.75769,
      "lat": 53.262341
    }
  },
  {
    "id": 2746748,
    "name": "Stein",
    "coord": {
      "lon": 5.76667,
      "lat": 50.96917
    }
  },
  {
    "id": 2746752,
    "name": "Steggerda",
    "coord": {
      "lon": 6.07548,
      "lat": 52.857342
    }
  },
  {
    "id": 2746761,
    "name": "Steenwijkerwold",
    "coord": {
      "lon": 6.06389,
      "lat": 52.804169
    }
  },
  {
    "id": 2746766,
    "name": "Steenwijk",
    "coord": {
      "lon": 6.12083,
      "lat": 52.787498
    }
  },
  {
    "id": 2746804,
    "name": "Steenbergen",
    "coord": {
      "lon": 4.31944,
      "lat": 51.584171
    }
  },
  {
    "id": 2746839,
    "name": "Staphorst",
    "coord": {
      "lon": 6.21111,
      "lat": 52.645
    }
  },
  {
    "id": 2746860,
    "name": "Stadskanaal",
    "coord": {
      "lon": 6.9504,
      "lat": 52.989471
    }
  },
  {
    "id": 2746932,
    "name": "Spijkenisse",
    "coord": {
      "lon": 4.32917,
      "lat": 51.845001
    }
  },
  {
    "id": 2746974,
    "name": "Spankeren",
    "coord": {
      "lon": 6.1125,
      "lat": 52.058331
    }
  },
  {
    "id": 2746981,
    "name": "Spakenburg",
    "coord": {
      "lon": 5.36667,
      "lat": 52.25
    }
  },
  {
    "id": 2746988,
    "name": "Spaanshuisken",
    "coord": {
      "lon": 5.95556,
      "lat": 51.036671
    }
  },
  {
    "id": 2747010,
    "name": "Son",
    "coord": {
      "lon": 5.49282,
      "lat": 51.51136
    }
  },
  {
    "id": 2747021,
    "name": "Someren",
    "coord": {
      "lon": 5.71111,
      "lat": 51.384998
    }
  },
  {
    "id": 2747030,
    "name": "Soesterberg",
    "coord": {
      "lon": 5.28611,
      "lat": 52.118328
    }
  },
  {
    "id": 2747034,
    "name": "Soest",
    "coord": {
      "lon": 5.29167,
      "lat": 52.173328
    }
  },
  {
    "id": 2747046,
    "name": "Snippeling",
    "coord": {
      "lon": 6.19306,
      "lat": 52.25
    }
  },
  {
    "id": 2747063,
    "name": "Sneek",
    "coord": {
      "lon": 5.6589,
      "lat": 53.03297
    }
  },
  {
    "id": 2747083,
    "name": "Smerp",
    "coord": {
      "lon": 4.99167,
      "lat": 52.924999
    }
  },
  {
    "id": 2747109,
    "name": "Sluiskil",
    "coord": {
      "lon": 3.83611,
      "lat": 51.278332
    }
  },
  {
    "id": 2747143,
    "name": "Slochteren",
    "coord": {
      "lon": 6.80547,
      "lat": 53.220779
    }
  },
  {
    "id": 2747169,
    "name": "Sliedrecht",
    "coord": {
      "lon": 4.77639,
      "lat": 51.820831
    }
  },
  {
    "id": 2747182,
    "name": "Sleen",
    "coord": {
      "lon": 6.80278,
      "lat": 52.771671
    }
  },
  {
    "id": 2747203,
    "name": "Sittard",
    "coord": {
      "lon": 5.86944,
      "lat": 50.998329
    }
  },
  {
    "id": 2747225,
    "name": "Sint Pancras",
    "coord": {
      "lon": 4.78333,
      "lat": 52.66
    }
  },
  {
    "id": 2747227,
    "name": "Sint-Oedenrode",
    "coord": {
      "lon": 5.45972,
      "lat": 51.567501
    }
  },
  {
    "id": 2747229,
    "name": "Sint Odiliënberg",
    "coord": {
      "lon": 6.0,
      "lat": 51.14333
    }
  },
  {
    "id": 2747231,
    "name": "Sint Nicolaasga",
    "coord": {
      "lon": 5.74242,
      "lat": 52.922932
    }
  },
  {
    "id": 2747234,
    "name": "Sint-Michielsgestel",
    "coord": {
      "lon": 5.35278,
      "lat": 51.64167
    }
  },
  {
    "id": 2747262,
    "name": "Sint Jansklooster",
    "coord": {
      "lon": 6.00556,
      "lat": 52.677502
    }
  },
  {
    "id": 2747270,
    "name": "Sint Jacobiparochie",
    "coord": {
      "lon": 5.60354,
      "lat": 53.272911
    }
  },
  {
    "id": 2747290,
    "name": "Sint Anthonis",
    "coord": {
      "lon": 5.88194,
      "lat": 51.626671
    }
  },
  {
    "id": 2747297,
    "name": "Sint Annaparochie",
    "coord": {
      "lon": 5.65727,
      "lat": 53.276199
    }
  },
  {
    "id": 2747312,
    "name": "Simpelveld",
    "coord": {
      "lon": 5.98194,
      "lat": 50.834171
    }
  },
  {
    "id": 2747348,
    "name": "Sibbe",
    "coord": {
      "lon": 5.82639,
      "lat": 50.84417
    }
  },
  {
    "id": 2747351,
    "name": "'s-Hertogenbosch",
    "coord": {
      "lon": 5.30417,
      "lat": 51.699169
    }
  },
  {
    "id": 2747357,
    "name": "'s-Heerenberg",
    "coord": {
      "lon": 6.25877,
      "lat": 51.876701
    }
  },
  {
    "id": 2747364,
    "name": "'s-Gravenzande",
    "coord": {
      "lon": 4.16528,
      "lat": 52.001671
    }
  },
  {
    "id": 2747371,
    "name": "'s Gravenmoer",
    "coord": {
      "lon": 4.94076,
      "lat": 51.655941
    }
  },
  {
    "id": 2747373,
    "name": "The Hague",
    "coord": {
      "lon": 4.29861,
      "lat": 52.076672
    }
  },
  {
    "id": 2747380,
    "name": "Sexbierum",
    "coord": {
      "lon": 5.48402,
      "lat": 53.218231
    }
  },
  {
    "id": 2747506,
    "name": "Schoonhoven",
    "coord": {
      "lon": 4.84861,
      "lat": 51.947498
    }
  },
  {
    "id": 2747515,
    "name": "Schoonebeek",
    "coord": {
      "lon": 6.88472,
      "lat": 52.662498
    }
  },
  {
    "id": 2747542,
    "name": "Schiphol",
    "coord": {
      "lon": 4.75,
      "lat": 52.299999
    }
  },
  {
    "id": 2747550,
    "name": "Schinveld",
    "coord": {
      "lon": 5.97917,
      "lat": 50.96917
    }
  },
  {
    "id": 2747551,
    "name": "Schin op Geul",
    "coord": {
      "lon": 5.86944,
      "lat": 50.854172
    }
  },
  {
    "id": 2747553,
    "name": "Schinnen",
    "coord": {
      "lon": 5.88889,
      "lat": 50.943329
    }
  },
  {
    "id": 2747584,
    "name": "Schijndel",
    "coord": {
      "lon": 5.43194,
      "lat": 51.622501
    }
  },
  {
    "id": 2747596,
    "name": "Schiedam",
    "coord": {
      "lon": 4.38889,
      "lat": 51.91917
    }
  },
  {
    "id": 2747597,
    "name": "Schiebroek",
    "coord": {
      "lon": 4.47124,
      "lat": 51.958382
    }
  },
  {
    "id": 2747599,
    "name": "Scheveningen",
    "coord": {
      "lon": 4.27557,
      "lat": 52.10461
    }
  },
  {
    "id": 2747611,
    "name": "Scherpenering",
    "coord": {
      "lon": 5.35833,
      "lat": 51.442501
    }
  },
  {
    "id": 2747671,
    "name": "Scharnegoutum",
    "coord": {
      "lon": 5.67822,
      "lat": 53.060509
    }
  },
  {
    "id": 2747680,
    "name": "Scharendijke",
    "coord": {
      "lon": 3.84306,
      "lat": 51.735828
    }
  },
  {
    "id": 2747702,
    "name": "Schalkwijk",
    "coord": {
      "lon": 4.65477,
      "lat": 52.36108
    }
  },
  {
    "id": 2747704,
    "name": "Schalkhaar",
    "coord": {
      "lon": 6.19444,
      "lat": 52.26833
    }
  },
  {
    "id": 2747713,
    "name": "Schaijk",
    "coord": {
      "lon": 5.63194,
      "lat": 51.745831
    }
  },
  {
    "id": 2747720,
    "name": "Schagen",
    "coord": {
      "lon": 4.79861,
      "lat": 52.787498
    }
  },
  {
    "id": 2747749,
    "name": "Sas van Gent",
    "coord": {
      "lon": 3.79861,
      "lat": 51.227501
    }
  },
  {
    "id": 2747751,
    "name": "Sassenheim",
    "coord": {
      "lon": 4.52222,
      "lat": 52.224998
    }
  },
  {
    "id": 2747758,
    "name": "Sappemeer",
    "coord": {
      "lon": 6.79028,
      "lat": 53.164169
    }
  },
  {
    "id": 2747835,
    "name": "Ruinen",
    "coord": {
      "lon": 6.35417,
      "lat": 52.762501
    }
  },
  {
    "id": 2747852,
    "name": "Rugge",
    "coord": {
      "lon": 4.15231,
      "lat": 51.899212
    }
  },
  {
    "id": 2747858,
    "name": "Rucphen",
    "coord": {
      "lon": 4.55833,
      "lat": 51.53167
    }
  },
  {
    "id": 2747865,
    "name": "Rozendaal",
    "coord": {
      "lon": 5.9625,
      "lat": 52.005829
    }
  },
  {
    "id": 2747870,
    "name": "Rozenburg",
    "coord": {
      "lon": 4.24861,
      "lat": 51.904171
    }
  },
  {
    "id": 2747886,
    "name": "Rottevalle",
    "coord": {
      "lon": 6.10411,
      "lat": 53.145229
    }
  },
  {
    "id": 2747891,
    "name": "Rotterdam",
    "coord": {
      "lon": 4.47917,
      "lat": 51.922501
    }
  },
  {
    "id": 2747910,
    "name": "Rosmalen",
    "coord": {
      "lon": 5.36528,
      "lat": 51.716671
    }
  },
  {
    "id": 2747929,
    "name": "Roosendaal",
    "coord": {
      "lon": 4.4226,
      "lat": 51.51149
    }
  },
  {
    "id": 2747930,
    "name": "Roosendaal",
    "coord": {
      "lon": 4.46528,
      "lat": 51.53083
    }
  },
  {
    "id": 2747938,
    "name": "Reduzum",
    "coord": {
      "lon": 5.78765,
      "lat": 53.117748
    }
  },
  {
    "id": 2748000,
    "name": "Roermond",
    "coord": {
      "lon": 5.9875,
      "lat": 51.194172
    }
  },
  {
    "id": 2748026,
    "name": "Roden",
    "coord": {
      "lon": 6.42083,
      "lat": 53.137501
    }
  },
  {
    "id": 2748051,
    "name": "Rinsumageast",
    "coord": {
      "lon": 5.94931,
      "lat": 53.296951
    }
  },
  {
    "id": 2748076,
    "name": "Rijswijk",
    "coord": {
      "lon": 4.32501,
      "lat": 52.036339
    }
  },
  {
    "id": 2748104,
    "name": "Rijnsburg",
    "coord": {
      "lon": 4.44167,
      "lat": 52.189999
    }
  },
  {
    "id": 2748172,
    "name": "Ridderkerk",
    "coord": {
      "lon": 4.60278,
      "lat": 51.872501
    }
  },
  {
    "id": 2748178,
    "name": "Rhoon",
    "coord": {
      "lon": 4.42222,
      "lat": 51.857498
    }
  },
  {
    "id": 2748185,
    "name": "Rhenen",
    "coord": {
      "lon": 5.56806,
      "lat": 51.959171
    }
  },
  {
    "id": 2748201,
    "name": "Rheden",
    "coord": {
      "lon": 6.02917,
      "lat": 52.005001
    }
  },
  {
    "id": 2748208,
    "name": "Reuver",
    "coord": {
      "lon": 6.07778,
      "lat": 51.284168
    }
  },
  {
    "id": 2748236,
    "name": "Renkum",
    "coord": {
      "lon": 5.73333,
      "lat": 51.976669
    }
  },
  {
    "id": 2748240,
    "name": "Renesse",
    "coord": {
      "lon": 3.775,
      "lat": 51.732498
    }
  },
  {
    "id": 2748280,
    "name": "Reeuwijk",
    "coord": {
      "lon": 4.725,
      "lat": 52.046669
    }
  },
  {
    "id": 2748286,
    "name": "Reek",
    "coord": {
      "lon": 5.68194,
      "lat": 51.745831
    }
  },
  {
    "id": 2748329,
    "name": "Randwijk",
    "coord": {
      "lon": 5.70833,
      "lat": 51.953331
    }
  },
  {
    "id": 2748371,
    "name": "Raalte",
    "coord": {
      "lon": 6.275,
      "lat": 52.38583
    }
  },
  {
    "id": 2748392,
    "name": "Putten",
    "coord": {
      "lon": 5.60694,
      "lat": 52.259171
    }
  },
  {
    "id": 2748403,
    "name": "Puth",
    "coord": {
      "lon": 5.87361,
      "lat": 50.95417
    }
  },
  {
    "id": 2748413,
    "name": "Purmerend",
    "coord": {
      "lon": 4.95972,
      "lat": 52.505001
    }
  },
  {
    "id": 2748481,
    "name": "Posterholt",
    "coord": {
      "lon": 6.03472,
      "lat": 51.123329
    }
  },
  {
    "id": 2748530,
    "name": "Poelpolder",
    "coord": {
      "lon": 4.55891,
      "lat": 52.249401
    }
  },
  {
    "id": 2748533,
    "name": "Poeldijk",
    "coord": {
      "lon": 4.21944,
      "lat": 52.02417
    }
  },
  {
    "id": 2748591,
    "name": "Pijnacker",
    "coord": {
      "lon": 4.42946,
      "lat": 52.019539
    }
  },
  {
    "id": 2748686,
    "name": "Peelo",
    "coord": {
      "lon": 6.58333,
      "lat": 53.01667
    }
  },
  {
    "id": 2748729,
    "name": "Papendrecht",
    "coord": {
      "lon": 4.6875,
      "lat": 51.831669
    }
  },
  {
    "id": 2748760,
    "name": "Palenstein",
    "coord": {
      "lon": 4.50869,
      "lat": 52.05579
    }
  },
  {
    "id": 2748838,
    "name": "Provincie Overijssel",
    "coord": {
      "lon": 6.5,
      "lat": 52.416672
    }
  },
  {
    "id": 2748864,
    "name": "Overberg",
    "coord": {
      "lon": 5.49444,
      "lat": 52.040001
    }
  },
  {
    "id": 2748926,
    "name": "Oud-Loosdrecht",
    "coord": {
      "lon": 5.08056,
      "lat": 52.206669
    }
  },
  {
    "id": 2748968,
    "name": "Oude Wetering",
    "coord": {
      "lon": 4.64444,
      "lat": 52.214169
    }
  },
  {
    "id": 2748979,
    "name": "Oudewater",
    "coord": {
      "lon": 4.86806,
      "lat": 52.025002
    }
  },
  {
    "id": 2749007,
    "name": "Oudeschoot",
    "coord": {
      "lon": 5.95579,
      "lat": 52.93343
    }
  },
  {
    "id": 2749009,
    "name": "Oudeschild",
    "coord": {
      "lon": 4.84722,
      "lat": 53.039169
    }
  },
  {
    "id": 2749017,
    "name": "Ouderkerk aan de Amstel",
    "coord": {
      "lon": 4.90746,
      "lat": 52.29504
    }
  },
  {
    "id": 2749034,
    "name": "Oude Pekela",
    "coord": {
      "lon": 7.00972,
      "lat": 53.104172
    }
  },
  {
    "id": 2749061,
    "name": "Oudemirdum",
    "coord": {
      "lon": 5.53544,
      "lat": 52.850189
    }
  },
  {
    "id": 2749120,
    "name": "Oudehaske",
    "coord": {
      "lon": 5.87095,
      "lat": 52.957088
    }
  },
  {
    "id": 2749136,
    "name": "Oudega",
    "coord": {
      "lon": 5.99888,
      "lat": 53.125038
    }
  },
  {
    "id": 2749164,
    "name": "Ouddorp",
    "coord": {
      "lon": 3.93472,
      "lat": 51.811668
    }
  },
  {
    "id": 2749182,
    "name": "Oud-Beijerland",
    "coord": {
      "lon": 4.4125,
      "lat": 51.824169
    }
  },
  {
    "id": 2749203,
    "name": "Otterlo",
    "coord": {
      "lon": 5.77222,
      "lat": 52.099998
    }
  },
  {
    "id": 2749234,
    "name": "Oss",
    "coord": {
      "lon": 5.51806,
      "lat": 51.764999
    }
  },
  {
    "id": 2749251,
    "name": "Oranjewoud",
    "coord": {
      "lon": 5.95038,
      "lat": 52.945789
    }
  },
  {
    "id": 2749281,
    "name": "Opperdoes",
    "coord": {
      "lon": 5.07534,
      "lat": 52.759151
    }
  },
  {
    "id": 2749284,
    "name": "Oppenhuizen",
    "coord": {
      "lon": 5.69495,
      "lat": 53.01194
    }
  },
  {
    "id": 2749286,
    "name": "Opmeer",
    "coord": {
      "lon": 4.94444,
      "lat": 52.706669
    }
  },
  {
    "id": 2749304,
    "name": "Opeinde",
    "coord": {
      "lon": 6.05656,
      "lat": 53.134102
    }
  },
  {
    "id": 2749307,
    "name": "Op den Hering",
    "coord": {
      "lon": 6.025,
      "lat": 50.982498
    }
  },
  {
    "id": 2749334,
    "name": "Oost-Vlieland",
    "coord": {
      "lon": 5.07431,
      "lat": 53.297031
    }
  },
  {
    "id": 2749368,
    "name": "Oosthoekeind",
    "coord": {
      "lon": 4.53851,
      "lat": 52.00629
    }
  },
  {
    "id": 2749385,
    "name": "Oosterzee",
    "coord": {
      "lon": 5.77572,
      "lat": 52.873791
    }
  },
  {
    "id": 2749423,
    "name": "Oosterpark",
    "coord": {
      "lon": 6.5853,
      "lat": 53.223701
    }
  },
  {
    "id": 2749430,
    "name": "Eastermar",
    "coord": {
      "lon": 6.05999,
      "lat": 53.17466
    }
  },
  {
    "id": 2749449,
    "name": "Oosterhout",
    "coord": {
      "lon": 5.82639,
      "lat": 51.880001
    }
  },
  {
    "id": 2749450,
    "name": "Oosterhout",
    "coord": {
      "lon": 4.85972,
      "lat": 51.645
    }
  },
  {
    "id": 2749451,
    "name": "Oosterhoogebrug",
    "coord": {
      "lon": 6.60141,
      "lat": 53.22892
    }
  },
  {
    "id": 2749503,
    "name": "Oosterbeek",
    "coord": {
      "lon": 5.84583,
      "lat": 51.985828
    }
  },
  {
    "id": 2749513,
    "name": "Oostelbeers",
    "coord": {
      "lon": 5.26897,
      "lat": 51.47171
    }
  },
  {
    "id": 2749534,
    "name": "Oostdorp",
    "coord": {
      "lon": 4.7,
      "lat": 52.666672
    }
  },
  {
    "id": 2749563,
    "name": "Ool",
    "coord": {
      "lon": 5.95139,
      "lat": 51.188332
    }
  },
  {
    "id": 2749626,
    "name": "Olst",
    "coord": {
      "lon": 6.10972,
      "lat": 52.337502
    }
  },
  {
    "id": 2749644,
    "name": "Oldenzaal",
    "coord": {
      "lon": 6.92917,
      "lat": 52.313332
    }
  },
  {
    "id": 2749653,
    "name": "Oldemarkt",
    "coord": {
      "lon": 5.975,
      "lat": 52.820831
    }
  },
  {
    "id": 2749660,
    "name": "Oldehove",
    "coord": {
      "lon": 6.39583,
      "lat": 53.303329
    }
  },
  {
    "id": 2749668,
    "name": "Oldebroek",
    "coord": {
      "lon": 5.90139,
      "lat": 52.445
    }
  },
  {
    "id": 2749669,
    "name": "Aldeboarn",
    "coord": {
      "lon": 5.9,
      "lat": 53.049999
    }
  },
  {
    "id": 2749680,
    "name": "Oisterwijk",
    "coord": {
      "lon": 5.18889,
      "lat": 51.57917
    }
  },
  {
    "id": 2749683,
    "name": "Oirschot",
    "coord": {
      "lon": 5.31389,
      "lat": 51.505001
    }
  },
  {
    "id": 2749685,
    "name": "Oirsbeek",
    "coord": {
      "lon": 5.90833,
      "lat": 50.950829
    }
  },
  {
    "id": 2749696,
    "name": "Offenbeek",
    "coord": {
      "lon": 6.095,
      "lat": 51.282249
    }
  },
  {
    "id": 2749703,
    "name": "Oerle",
    "coord": {
      "lon": 5.37163,
      "lat": 51.42255
    }
  },
  {
    "id": 2749708,
    "name": "Oentsjerk",
    "coord": {
      "lon": 5.9,
      "lat": 53.25
    }
  },
  {
    "id": 2749712,
    "name": "Oene",
    "coord": {
      "lon": 6.04861,
      "lat": 52.34417
    }
  },
  {
    "id": 2749723,
    "name": "Oegstgeest",
    "coord": {
      "lon": 4.46944,
      "lat": 52.18
    }
  },
  {
    "id": 2749735,
    "name": "Odiliapeel",
    "coord": {
      "lon": 5.70556,
      "lat": 51.64333
    }
  },
  {
    "id": 2749745,
    "name": "Obdam",
    "coord": {
      "lon": 4.90694,
      "lat": 52.675831
    }
  },
  {
    "id": 2749753,
    "name": "Nuth",
    "coord": {
      "lon": 5.88611,
      "lat": 50.9175
    }
  },
  {
    "id": 2749756,
    "name": "Nunspeet",
    "coord": {
      "lon": 5.78611,
      "lat": 52.379169
    }
  },
  {
    "id": 2749780,
    "name": "Nuenen",
    "coord": {
      "lon": 5.55278,
      "lat": 51.470001
    }
  },
  {
    "id": 2749807,
    "name": "Noordwolde",
    "coord": {
      "lon": 6.14153,
      "lat": 52.889641
    }
  },
  {
    "id": 2749811,
    "name": "Noordwijkerhout",
    "coord": {
      "lon": 4.49306,
      "lat": 52.261669
    }
  },
  {
    "id": 2749812,
    "name": "Noordwijk-Binnen",
    "coord": {
      "lon": 4.44722,
      "lat": 52.235828
    }
  },
  {
    "id": 2749813,
    "name": "Noordwijk aan Zee",
    "coord": {
      "lon": 4.43472,
      "lat": 52.243328
    }
  },
  {
    "id": 2749835,
    "name": "Noord-Scharwoude",
    "coord": {
      "lon": 4.81111,
      "lat": 52.69833
    }
  },
  {
    "id": 2749875,
    "name": "Noordhorn",
    "coord": {
      "lon": 6.39583,
      "lat": 53.261669
    }
  },
  {
    "id": 2749879,
    "name": "Provincie Noord-Holland",
    "coord": {
      "lon": 4.91667,
      "lat": 52.583328
    }
  },
  {
    "id": 2749931,
    "name": "Noorderhoogebrug",
    "coord": {
      "lon": 6.56806,
      "lat": 53.245831
    }
  },
  {
    "id": 2749990,
    "name": "Provincie Noord-Brabant",
    "coord": {
      "lon": 5.0,
      "lat": 51.666672
    }
  },
  {
    "id": 2749992,
    "name": "Noardburgum",
    "coord": {
      "lon": 6.00523,
      "lat": 53.221352
    }
  },
  {
    "id": 2750053,
    "name": "Nijmegen",
    "coord": {
      "lon": 5.85278,
      "lat": 51.842499
    }
  },
  {
    "id": 2750065,
    "name": "Nijkerk",
    "coord": {
      "lon": 5.48611,
      "lat": 52.220001
    }
  },
  {
    "id": 2750117,
    "name": "Nieuw-Vossemeer",
    "coord": {
      "lon": 4.21806,
      "lat": 51.59
    }
  },
  {
    "id": 2750157,
    "name": "Nieuw-Lotbroek",
    "coord": {
      "lon": 5.92798,
      "lat": 50.91283
    }
  },
  {
    "id": 2750158,
    "name": "Nieuw-Loosdrecht",
    "coord": {
      "lon": 5.13889,
      "lat": 52.199169
    }
  },
  {
    "id": 2750163,
    "name": "Nieuw-Lekkerland",
    "coord": {
      "lon": 4.68653,
      "lat": 51.889149
    }
  },
  {
    "id": 2750175,
    "name": "Nieuwland",
    "coord": {
      "lon": 5.38333,
      "lat": 52.200001
    }
  },
  {
    "id": 2750187,
    "name": "Nieuwkoop",
    "coord": {
      "lon": 4.77639,
      "lat": 52.150829
    }
  },
  {
    "id": 2750194,
    "name": "Nieuw-Helvoet",
    "coord": {
      "lon": 4.12897,
      "lat": 51.838428
    }
  },
  {
    "id": 2750280,
    "name": "Nieuwenhoorn",
    "coord": {
      "lon": 4.14306,
      "lat": 51.854172
    }
  },
  {
    "id": 2750310,
    "name": "Nieuwehorne",
    "coord": {
      "lon": 6.06342,
      "lat": 52.95113
    }
  },
  {
    "id": 2750325,
    "name": "Nieuwegein",
    "coord": {
      "lon": 5.08056,
      "lat": 52.029171
    }
  },
  {
    "id": 2750405,
    "name": "Kingdom of the Netherlands",
    "coord": {
      "lon": 5.75,
      "lat": 52.5
    }
  },
  {
    "id": 2750417,
    "name": "Nes",
    "coord": {
      "lon": 5.774,
      "lat": 53.445019
    }
  },
  {
    "id": 2750420,
    "name": "Nes",
    "coord": {
      "lon": 5.85223,
      "lat": 53.052071
    }
  },
  {
    "id": 2750444,
    "name": "Neerijnen",
    "coord": {
      "lon": 5.28194,
      "lat": 51.831669
    }
  },
  {
    "id": 2750450,
    "name": "Neerbosch West",
    "coord": {
      "lon": 5.8,
      "lat": 51.833328
    }
  },
  {
    "id": 2750460,
    "name": "Neede",
    "coord": {
      "lon": 6.61389,
      "lat": 52.134171
    }
  },
  {
    "id": 2750467,
    "name": "Nederweert",
    "coord": {
      "lon": 5.74861,
      "lat": 51.285831
    }
  },
  {
    "id": 2750479,
    "name": "Nederhemert-Noord",
    "coord": {
      "lon": 5.17305,
      "lat": 51.763222
    }
  },
  {
    "id": 2750480,
    "name": "Nederhemert",
    "coord": {
      "lon": 5.16817,
      "lat": 51.765179
    }
  },
  {
    "id": 2750521,
    "name": "Naarden",
    "coord": {
      "lon": 5.1625,
      "lat": 52.29583
    }
  },
  {
    "id": 2750523,
    "name": "Naaldwijk",
    "coord": {
      "lon": 4.20972,
      "lat": 51.994171
    }
  },
  {
    "id": 2750543,
    "name": "Munnikeveld",
    "coord": {
      "lon": 5.07341,
      "lat": 52.5023
    }
  },
  {
    "id": 2750624,
    "name": "Montfort",
    "coord": {
      "lon": 5.94861,
      "lat": 51.125832
    }
  },
  {
    "id": 2750626,
    "name": "Montfoort",
    "coord": {
      "lon": 4.95278,
      "lat": 52.04583
    }
  },
  {
    "id": 2750630,
    "name": "Monster",
    "coord": {
      "lon": 4.175,
      "lat": 52.025829
    }
  },
  {
    "id": 2750641,
    "name": "Monnickendam",
    "coord": {
      "lon": 5.0375,
      "lat": 52.458328
    }
  },
  {
    "id": 2750764,
    "name": "Moerkapelle",
    "coord": {
      "lon": 4.575,
      "lat": 52.04417
    }
  },
  {
    "id": 2750790,
    "name": "Minnertsga",
    "coord": {
      "lon": 5.59513,
      "lat": 53.251041
    }
  },
  {
    "id": 2750810,
    "name": "Mijnsheerenland",
    "coord": {
      "lon": 4.4875,
      "lat": 51.796669
    }
  },
  {
    "id": 2750811,
    "name": "Mijnheerkens",
    "coord": {
      "lon": 6.0,
      "lat": 51.200001
    }
  },
  {
    "id": 2750815,
    "name": "Mijdrecht",
    "coord": {
      "lon": 4.8625,
      "lat": 52.206669
    }
  },
  {
    "id": 2750821,
    "name": "Mierlo",
    "coord": {
      "lon": 5.61944,
      "lat": 51.439999
    }
  },
  {
    "id": 2750850,
    "name": "Middenmeer",
    "coord": {
      "lon": 4.99861,
      "lat": 52.806671
    }
  },
  {
    "id": 2750884,
    "name": "Middelharnis",
    "coord": {
      "lon": 4.16528,
      "lat": 51.7575
    }
  },
  {
    "id": 2750888,
    "name": "Middeldijk",
    "coord": {
      "lon": 4.51667,
      "lat": 51.849998
    }
  },
  {
    "id": 2750896,
    "name": "Middelburg",
    "coord": {
      "lon": 3.61389,
      "lat": 51.5
    }
  },
  {
    "id": 2750903,
    "name": "Middelbeers",
    "coord": {
      "lon": 5.25,
      "lat": 51.466671
    }
  },
  {
    "id": 2750938,
    "name": "Merkelbeek",
    "coord": {
      "lon": 5.94069,
      "lat": 50.953892
    }
  },
  {
    "id": 2750947,
    "name": "Meppel",
    "coord": {
      "lon": 6.19444,
      "lat": 52.695831
    }
  },
  {
    "id": 2750953,
    "name": "Mensfort",
    "coord": {
      "lon": 5.46667,
      "lat": 51.450001
    }
  },
  {
    "id": 2750965,
    "name": "Menaam",
    "coord": {
      "lon": 5.66124,
      "lat": 53.217972
    }
  },
  {
    "id": 2750978,
    "name": "Melick",
    "coord": {
      "lon": 6.01667,
      "lat": 51.159168
    }
  },
  {
    "id": 2751005,
    "name": "Meezenbroek",
    "coord": {
      "lon": 5.99051,
      "lat": 50.896801
    }
  },
  {
    "id": 2751024,
    "name": "Meerzicht",
    "coord": {
      "lon": 4.46832,
      "lat": 52.057838
    }
  },
  {
    "id": 2751037,
    "name": "Meerssen",
    "coord": {
      "lon": 5.75,
      "lat": 50.887501
    }
  },
  {
    "id": 2751122,
    "name": "Marsum",
    "coord": {
      "lon": 5.72637,
      "lat": 53.210499
    }
  },
  {
    "id": 2751129,
    "name": "Marrum",
    "coord": {
      "lon": 5.80198,
      "lat": 53.322769
    }
  },
  {
    "id": 2751161,
    "name": "Markelo",
    "coord": {
      "lon": 6.49861,
      "lat": 52.235001
    }
  },
  {
    "id": 2751180,
    "name": "Mariarade",
    "coord": {
      "lon": 5.92738,
      "lat": 50.929062
    }
  },
  {
    "id": 2751193,
    "name": "Mariaheide",
    "coord": {
      "lon": 5.58056,
      "lat": 51.633331
    }
  },
  {
    "id": 2751199,
    "name": "Margraten",
    "coord": {
      "lon": 5.82083,
      "lat": 50.820831
    }
  },
  {
    "id": 2751212,
    "name": "Mantgum",
    "coord": {
      "lon": 5.71924,
      "lat": 53.128651
    }
  },
  {
    "id": 2751253,
    "name": "Makkum",
    "coord": {
      "lon": 5.67946,
      "lat": 53.095131
    }
  },
  {
    "id": 2751254,
    "name": "Makkum",
    "coord": {
      "lon": 5.40231,
      "lat": 53.054581
    }
  },
  {
    "id": 2751264,
    "name": "Magele",
    "coord": {
      "lon": 6.52083,
      "lat": 52.46917
    }
  },
  {
    "id": 2751283,
    "name": "Maastricht",
    "coord": {
      "lon": 5.68889,
      "lat": 50.848331
    }
  },
  {
    "id": 2751285,
    "name": "Maassluis",
    "coord": {
      "lon": 4.25,
      "lat": 51.923328
    }
  },
  {
    "id": 2751296,
    "name": "Maasdijk",
    "coord": {
      "lon": 4.21389,
      "lat": 51.959171
    }
  },
  {
    "id": 2751301,
    "name": "Maasbree",
    "coord": {
      "lon": 6.04861,
      "lat": 51.357498
    }
  },
  {
    "id": 2751303,
    "name": "Maasbracht",
    "coord": {
      "lon": 5.88627,
      "lat": 51.13929
    }
  },
  {
    "id": 2751316,
    "name": "Maarssen",
    "coord": {
      "lon": 5.04167,
      "lat": 52.139172
    }
  },
  {
    "id": 2751318,
    "name": "Maarsbergen",
    "coord": {
      "lon": 5.40556,
      "lat": 52.058331
    }
  },
  {
    "id": 2751320,
    "name": "Maarn",
    "coord": {
      "lon": 5.37083,
      "lat": 52.064171
    }
  },
  {
    "id": 2751385,
    "name": "Lunteren",
    "coord": {
      "lon": 5.62222,
      "lat": 52.084999
    }
  },
  {
    "id": 2751424,
    "name": "Losser",
    "coord": {
      "lon": 7.00417,
      "lat": 52.26083
    }
  },
  {
    "id": 2751436,
    "name": "Lopik",
    "coord": {
      "lon": 4.94861,
      "lat": 51.9725
    }
  },
  {
    "id": 2751449,
    "name": "Loosbroek",
    "coord": {
      "lon": 5.50694,
      "lat": 51.678329
    }
  },
  {
    "id": 2751456,
    "name": "Loon op Zand",
    "coord": {
      "lon": 5.075,
      "lat": 51.627499
    }
  },
  {
    "id": 2751524,
    "name": "Loenen",
    "coord": {
      "lon": 6.01944,
      "lat": 52.1175
    }
  },
  {
    "id": 2751537,
    "name": "Lochem",
    "coord": {
      "lon": 6.41111,
      "lat": 52.159168
    }
  },
  {
    "id": 2751547,
    "name": "Lisse",
    "coord": {
      "lon": 4.55694,
      "lat": 52.259998
    }
  },
  {
    "id": 2751582,
    "name": "Lindenholt",
    "coord": {
      "lon": 5.7934,
      "lat": 51.832699
    }
  },
  {
    "id": 2751596,
    "name": "Provincie Limburg",
    "coord": {
      "lon": 6.0,
      "lat": 51.25
    }
  },
  {
    "id": 2751599,
    "name": "Limbricht",
    "coord": {
      "lon": 5.8375,
      "lat": 51.011669
    }
  },
  {
    "id": 2751621,
    "name": "Liesveld",
    "coord": {
      "lon": 4.83194,
      "lat": 51.932499
    }
  },
  {
    "id": 2751641,
    "name": "Lienden",
    "coord": {
      "lon": 5.51806,
      "lat": 51.94833
    }
  },
  {
    "id": 2751651,
    "name": "Lichtenvoorde",
    "coord": {
      "lon": 6.56667,
      "lat": 51.986671
    }
  },
  {
    "id": 2751687,
    "name": "Leusden",
    "coord": {
      "lon": 5.43194,
      "lat": 52.1325
    }
  },
  {
    "id": 2751709,
    "name": "Lepelstraat",
    "coord": {
      "lon": 4.27639,
      "lat": 51.548328
    }
  },
  {
    "id": 2751729,
    "name": "Lemmer",
    "coord": {
      "lon": 5.70912,
      "lat": 52.84618
    }
  },
  {
    "id": 2751738,
    "name": "Lelystad",
    "coord": {
      "lon": 5.475,
      "lat": 52.508331
    }
  },
  {
    "id": 2751750,
    "name": "Leimuiden",
    "coord": {
      "lon": 4.66944,
      "lat": 52.224171
    }
  },
  {
    "id": 2751771,
    "name": "Leiderdorp",
    "coord": {
      "lon": 4.52917,
      "lat": 52.158329
    }
  },
  {
    "id": 2751773,
    "name": "Leiden",
    "coord": {
      "lon": 4.49306,
      "lat": 52.158329
    }
  },
  {
    "id": 2751789,
    "name": "Leeuwen",
    "coord": {
      "lon": 5.99862,
      "lat": 51.21032
    }
  },
  {
    "id": 2751792,
    "name": "Leeuwarden",
    "coord": {
      "lon": 5.80859,
      "lat": 53.201389
    }
  },
  {
    "id": 2751793,
    "name": "Leesten",
    "coord": {
      "lon": 6.23217,
      "lat": 52.127899
    }
  },
  {
    "id": 2751801,
    "name": "Leersum",
    "coord": {
      "lon": 5.42778,
      "lat": 52.011669
    }
  },
  {
    "id": 2751808,
    "name": "Leerdam",
    "coord": {
      "lon": 5.09167,
      "lat": 51.89333
    }
  },
  {
    "id": 2751813,
    "name": "Leens",
    "coord": {
      "lon": 6.37917,
      "lat": 53.360001
    }
  },
  {
    "id": 2751834,
    "name": "Leek",
    "coord": {
      "lon": 6.37639,
      "lat": 53.162498
    }
  },
  {
    "id": 2751861,
    "name": "Laudermarke",
    "coord": {
      "lon": 7.11528,
      "lat": 52.886669
    }
  },
  {
    "id": 2751874,
    "name": "Laren",
    "coord": {
      "lon": 5.22778,
      "lat": 52.256672
    }
  },
  {
    "id": 2751875,
    "name": "Laren",
    "coord": {
      "lon": 6.36528,
      "lat": 52.194172
    }
  },
  {
    "id": 2751924,
    "name": "Langerak",
    "coord": {
      "lon": 4.87639,
      "lat": 51.931671
    }
  },
  {
    "id": 2751980,
    "name": "Landsmeer",
    "coord": {
      "lon": 4.91528,
      "lat": 52.430828
    }
  },
  {
    "id": 2751998,
    "name": "Lammerenburg",
    "coord": {
      "lon": 3.55833,
      "lat": 51.466671
    }
  },
  {
    "id": 2752062,
    "name": "Ladysmith",
    "coord": {
      "lon": 6.9,
      "lat": 53.333328
    }
  },
  {
    "id": 2752130,
    "name": "Kwintsheul",
    "coord": {
      "lon": 4.25556,
      "lat": 52.013329
    }
  },
  {
    "id": 2752151,
    "name": "Kunrade",
    "coord": {
      "lon": 5.93107,
      "lat": 50.877689
    }
  },
  {
    "id": 2752187,
    "name": "Kruisschot",
    "coord": {
      "lon": 5.68472,
      "lat": 51.486671
    }
  },
  {
    "id": 2752192,
    "name": "Kruisland",
    "coord": {
      "lon": 4.40972,
      "lat": 51.569172
    }
  },
  {
    "id": 2752240,
    "name": "Krommenie",
    "coord": {
      "lon": 4.7625,
      "lat": 52.499168
    }
  },
  {
    "id": 2752260,
    "name": "Krispijn",
    "coord": {
      "lon": 4.6607,
      "lat": 51.80167
    }
  },
  {
    "id": 2752264,
    "name": "Krimpen aan den IJssel",
    "coord": {
      "lon": 4.60278,
      "lat": 51.916672
    }
  },
  {
    "id": 2752300,
    "name": "Kranenburg",
    "coord": {
      "lon": 6.35972,
      "lat": 52.10083
    }
  },
  {
    "id": 2752314,
    "name": "Kralingen",
    "coord": {
      "lon": 4.50336,
      "lat": 51.926849
    }
  },
  {
    "id": 2752349,
    "name": "Kraaijenstein",
    "coord": {
      "lon": 4.23333,
      "lat": 52.049999
    }
  },
  {
    "id": 2752367,
    "name": "Koudum",
    "coord": {
      "lon": 5.44834,
      "lat": 52.915508
    }
  },
  {
    "id": 2752403,
    "name": "Korteven",
    "coord": {
      "lon": 4.31753,
      "lat": 51.445229
    }
  },
  {
    "id": 2752409,
    "name": "Kortenhoef",
    "coord": {
      "lon": 5.10694,
      "lat": 52.23917
    }
  },
  {
    "id": 2752420,
    "name": "Korrewegwijk",
    "coord": {
      "lon": 6.56804,
      "lat": 53.232349
    }
  },
  {
    "id": 2752441,
    "name": "Kootwijkerbroek",
    "coord": {
      "lon": 5.66944,
      "lat": 52.150829
    }
  },
  {
    "id": 2752444,
    "name": "Kootstertille",
    "coord": {
      "lon": 6.09209,
      "lat": 53.212608
    }
  },
  {
    "id": 2752492,
    "name": "Koningsbosch",
    "coord": {
      "lon": 5.95833,
      "lat": 51.05167
    }
  },
  {
    "id": 2752520,
    "name": "Kollumerzwaag",
    "coord": {
      "lon": 6.07544,
      "lat": 53.262241
    }
  },
  {
    "id": 2752524,
    "name": "Kollum",
    "coord": {
      "lon": 6.15293,
      "lat": 53.276951
    }
  },
  {
    "id": 2752547,
    "name": "Koewacht",
    "coord": {
      "lon": 3.97361,
      "lat": 51.228329
    }
  },
  {
    "id": 2752600,
    "name": "Klundert",
    "coord": {
      "lon": 4.53472,
      "lat": 51.665001
    }
  },
  {
    "id": 2752611,
    "name": "Kloosterzande",
    "coord": {
      "lon": 4.01389,
      "lat": 51.370831
    }
  },
  {
    "id": 2752646,
    "name": "Klimmen",
    "coord": {
      "lon": 5.88056,
      "lat": 50.875832
    }
  },
  {
    "id": 2752798,
    "name": "Klazienaveen",
    "coord": {
      "lon": 6.99028,
      "lat": 52.724171
    }
  },
  {
    "id": 2752899,
    "name": "Kesteren",
    "coord": {
      "lon": 5.56944,
      "lat": 51.935001
    }
  },
  {
    "id": 2752923,
    "name": "Kerkrade",
    "coord": {
      "lon": 6.0625,
      "lat": 50.865829
    }
  },
  {
    "id": 2752950,
    "name": "Marken",
    "coord": {
      "lon": 5.10278,
      "lat": 52.458328
    }
  },
  {
    "id": 2752969,
    "name": "Keldonk",
    "coord": {
      "lon": 5.58472,
      "lat": 51.58667
    }
  },
  {
    "id": 2753010,
    "name": "Katwijk aan Zee",
    "coord": {
      "lon": 4.39861,
      "lat": 52.203331
    }
  },
  {
    "id": 2753011,
    "name": "Katwijk aan den Rijn",
    "coord": {
      "lon": 4.42222,
      "lat": 52.194172
    }
  },
  {
    "id": 2753040,
    "name": "Katerveer",
    "coord": {
      "lon": 6.06944,
      "lat": 52.5
    }
  },
  {
    "id": 2753106,
    "name": "Kampen",
    "coord": {
      "lon": 5.91111,
      "lat": 52.555
    }
  },
  {
    "id": 2753174,
    "name": "Jutphaas",
    "coord": {
      "lon": 5.08333,
      "lat": 52.033329
    }
  },
  {
    "id": 2753184,
    "name": "Julianadorp",
    "coord": {
      "lon": 4.74028,
      "lat": 52.889999
    }
  },
  {
    "id": 2753197,
    "name": "Joure",
    "coord": {
      "lon": 5.80301,
      "lat": 52.965698
    }
  },
  {
    "id": 2753201,
    "name": "Jordaan",
    "coord": {
      "lon": 4.88059,
      "lat": 52.37439
    }
  },
  {
    "id": 2753256,
    "name": "Jelsum",
    "coord": {
      "lon": 5.78237,
      "lat": 53.234699
    }
  },
  {
    "id": 2753307,
    "name": "Jirnsum",
    "coord": {
      "lon": 5.79254,
      "lat": 53.07753
    }
  },
  {
    "id": 2753355,
    "name": "IJsselstein",
    "coord": {
      "lon": 5.04306,
      "lat": 52.02
    }
  },
  {
    "id": 2753359,
    "name": "IJsselmonde",
    "coord": {
      "lon": 4.55,
      "lat": 51.900002
    }
  },
  {
    "id": 2753379,
    "name": "IJlst",
    "coord": {
      "lon": 5.62312,
      "lat": 53.01009
    }
  },
  {
    "id": 2753439,
    "name": "Hulst",
    "coord": {
      "lon": 4.05278,
      "lat": 51.279999
    }
  },
  {
    "id": 2753468,
    "name": "Huizen",
    "coord": {
      "lon": 5.24167,
      "lat": 52.299171
    }
  },
  {
    "id": 2753470,
    "name": "Huizum",
    "coord": {
      "lon": 5.81119,
      "lat": 53.1917
    }
  },
  {
    "id": 2753516,
    "name": "Húns",
    "coord": {
      "lon": 5.66572,
      "lat": 53.159409
    }
  },
  {
    "id": 2753548,
    "name": "Houthem",
    "coord": {
      "lon": 5.79306,
      "lat": 50.872501
    }
  },
  {
    "id": 2753557,
    "name": "Houten",
    "coord": {
      "lon": 5.16806,
      "lat": 52.028332
    }
  },
  {
    "id": 2753587,
    "name": "Horst",
    "coord": {
      "lon": 5.58194,
      "lat": 52.308331
    }
  },
  {
    "id": 2753638,
    "name": "Hoorn",
    "coord": {
      "lon": 5.05972,
      "lat": 52.642502
    }
  },
  {
    "id": 2753686,
    "name": "Hoogland",
    "coord": {
      "lon": 5.37361,
      "lat": 52.182499
    }
  },
  {
    "id": 2753706,
    "name": "Hoogezand",
    "coord": {
      "lon": 6.76111,
      "lat": 53.161671
    }
  },
  {
    "id": 2753719,
    "name": "Hoogeveen",
    "coord": {
      "lon": 6.47639,
      "lat": 52.7225
    }
  },
  {
    "id": 2753801,
    "name": "Hoofddorp",
    "coord": {
      "lon": 4.68889,
      "lat": 52.302502
    }
  },
  {
    "id": 2753806,
    "name": "Honselersdijk",
    "coord": {
      "lon": 4.22441,
      "lat": 52.006649
    }
  },
  {
    "id": 2753852,
    "name": "Holwerd",
    "coord": {
      "lon": 5.90073,
      "lat": 53.368149
    }
  },
  {
    "id": 2753887,
    "name": "Hollum",
    "coord": {
      "lon": 5.63805,
      "lat": 53.4394
    }
  },
  {
    "id": 2753996,
    "name": "Hoensbroek",
    "coord": {
      "lon": 5.92528,
      "lat": 50.92387
    }
  },
  {
    "id": 2754007,
    "name": "Hoek van Holland",
    "coord": {
      "lon": 4.13333,
      "lat": 51.977501
    }
  },
  {
    "id": 2754064,
    "name": "Hilversum",
    "coord": {
      "lon": 5.17639,
      "lat": 52.223331
    }
  },
  {
    "id": 2754066,
    "name": "Hilvarenbeek",
    "coord": {
      "lon": 5.1375,
      "lat": 51.485828
    }
  },
  {
    "id": 2754073,
    "name": "Hillegom",
    "coord": {
      "lon": 4.58333,
      "lat": 52.290829
    }
  },
  {
    "id": 2754111,
    "name": "Heythuysen",
    "coord": {
      "lon": 5.89861,
      "lat": 51.25
    }
  },
  {
    "id": 2754273,
    "name": "Het Hazebos",
    "coord": {
      "lon": 6.60543,
      "lat": 52.564899
    }
  },
  {
    "id": 2754287,
    "name": "Heteren",
    "coord": {
      "lon": 5.75556,
      "lat": 51.956669
    }
  },
  {
    "id": 2754322,
    "name": "Herveld",
    "coord": {
      "lon": 5.75417,
      "lat": 51.90583
    }
  },
  {
    "id": 2754352,
    "name": "Herkenbosch",
    "coord": {
      "lon": 6.06389,
      "lat": 51.153332
    }
  },
  {
    "id": 2754386,
    "name": "Hengstdal",
    "coord": {
      "lon": 5.88333,
      "lat": 51.833328
    }
  },
  {
    "id": 2754389,
    "name": "Hengevelde",
    "coord": {
      "lon": 6.63611,
      "lat": 52.199169
    }
  },
  {
    "id": 2754394,
    "name": "Hengelo",
    "coord": {
      "lon": 6.79306,
      "lat": 52.265831
    }
  },
  {
    "id": 2754395,
    "name": "Hengelo",
    "coord": {
      "lon": 6.30972,
      "lat": 52.050831
    }
  },
  {
    "id": 2754408,
    "name": "Hendrik-Ido-Ambacht",
    "coord": {
      "lon": 4.63889,
      "lat": 51.84417
    }
  },
  {
    "id": 2754447,
    "name": "Helmond",
    "coord": {
      "lon": 5.66111,
      "lat": 51.48167
    }
  },
  {
    "id": 2754454,
    "name": "Hellevoetsluis",
    "coord": {
      "lon": 4.13333,
      "lat": 51.833328
    }
  },
  {
    "id": 2754491,
    "name": "Hekelingen",
    "coord": {
      "lon": 4.34444,
      "lat": 51.825829
    }
  },
  {
    "id": 2754502,
    "name": "Heino",
    "coord": {
      "lon": 6.23282,
      "lat": 52.436611
    }
  },
  {
    "id": 2754507,
    "name": "Heinenoord",
    "coord": {
      "lon": 4.47659,
      "lat": 51.826019
    }
  },
  {
    "id": 2754516,
    "name": "Heiloo",
    "coord": {
      "lon": 4.68815,
      "lat": 52.60252
    }
  },
  {
    "id": 2754545,
    "name": "Heikant",
    "coord": {
      "lon": 5.29028,
      "lat": 51.39333
    }
  },
  {
    "id": 2754552,
    "name": "Heijplaat",
    "coord": {
      "lon": 4.42083,
      "lat": 51.89333
    }
  },
  {
    "id": 2754618,
    "name": "Heeze",
    "coord": {
      "lon": 5.57145,
      "lat": 51.382801
    }
  },
  {
    "id": 2754635,
    "name": "Heesch",
    "coord": {
      "lon": 5.52672,
      "lat": 51.73362
    }
  },
  {
    "id": 2754652,
    "name": "Heerlen",
    "coord": {
      "lon": 5.98154,
      "lat": 50.883652
    }
  },
  {
    "id": 2754656,
    "name": "Heerjansdam",
    "coord": {
      "lon": 4.56389,
      "lat": 51.835831
    }
  },
  {
    "id": 2754659,
    "name": "Heerhugowaard",
    "coord": {
      "lon": 4.84862,
      "lat": 52.67144
    }
  },
  {
    "id": 2754662,
    "name": "Heerewaarden",
    "coord": {
      "lon": 5.393,
      "lat": 51.817692
    }
  },
  {
    "id": 2754669,
    "name": "Heerenveen",
    "coord": {
      "lon": 5.91854,
      "lat": 52.95929
    }
  },
  {
    "id": 2754681,
    "name": "Heerde",
    "coord": {
      "lon": 6.04016,
      "lat": 52.38723
    }
  },
  {
    "id": 2754682,
    "name": "Heer",
    "coord": {
      "lon": 5.72989,
      "lat": 50.83836
    }
  },
  {
    "id": 2754692,
    "name": "Heemstede",
    "coord": {
      "lon": 4.62301,
      "lat": 52.349918
    }
  },
  {
    "id": 2754697,
    "name": "Heemskerk",
    "coord": {
      "lon": 4.67165,
      "lat": 52.511082
    }
  },
  {
    "id": 2754703,
    "name": "Heelsum",
    "coord": {
      "lon": 5.75833,
      "lat": 51.984169
    }
  },
  {
    "id": 2754712,
    "name": "Heeg",
    "coord": {
      "lon": 5.61075,
      "lat": 52.968601
    }
  },
  {
    "id": 2754719,
    "name": "Hedel",
    "coord": {
      "lon": 5.26134,
      "lat": 51.74802
    }
  },
  {
    "id": 2754724,
    "name": "Hazerswoude-Dorp",
    "coord": {
      "lon": 4.58611,
      "lat": 52.096668
    }
  },
  {
    "id": 2754752,
    "name": "Havelte",
    "coord": {
      "lon": 6.24015,
      "lat": 52.769409
    }
  },
  {
    "id": 2754768,
    "name": "Hattem",
    "coord": {
      "lon": 6.06389,
      "lat": 52.474998
    }
  },
  {
    "id": 2754779,
    "name": "Hasselt",
    "coord": {
      "lon": 6.09527,
      "lat": 52.59267
    }
  },
  {
    "id": 2754788,
    "name": "Haspel",
    "coord": {
      "lon": 5.51944,
      "lat": 52.03167
    }
  },
  {
    "id": 2754804,
    "name": "Harskamp",
    "coord": {
      "lon": 5.75278,
      "lat": 52.130001
    }
  },
  {
    "id": 2754808,
    "name": "Harreveld",
    "coord": {
      "lon": 6.51667,
      "lat": 51.977501
    }
  },
  {
    "id": 2754817,
    "name": "Harlingen",
    "coord": {
      "lon": 5.42244,
      "lat": 53.17477
    }
  },
  {
    "id": 2754821,
    "name": "Harkema",
    "coord": {
      "lon": 6.13333,
      "lat": 53.183331
    }
  },
  {
    "id": 2754835,
    "name": "Harfsen",
    "coord": {
      "lon": 6.29722,
      "lat": 52.2075
    }
  },
  {
    "id": 2754837,
    "name": "Harenkarspel",
    "coord": {
      "lon": 4.77682,
      "lat": 52.734161
    }
  },
  {
    "id": 2754841,
    "name": "Haren",
    "coord": {
      "lon": 6.63037,
      "lat": 53.17667
    }
  },
  {
    "id": 2754848,
    "name": "Harderwijk",
    "coord": {
      "lon": 5.62083,
      "lat": 52.341671
    }
  },
  {
    "id": 2754861,
    "name": "Hardenberg",
    "coord": {
      "lon": 6.61944,
      "lat": 52.575829
    }
  },
  {
    "id": 2754864,
    "name": "Hurdegaryp",
    "coord": {
      "lon": 5.94137,
      "lat": 53.213329
    }
  },
  {
    "id": 2754922,
    "name": "Halsteren",
    "coord": {
      "lon": 4.26785,
      "lat": 51.528339
    }
  },
  {
    "id": 2754930,
    "name": "Hallum",
    "coord": {
      "lon": 5.78379,
      "lat": 53.306568
    }
  },
  {
    "id": 2754975,
    "name": "Haelen",
    "coord": {
      "lon": 5.95694,
      "lat": 51.235828
    }
  },
  {
    "id": 2754978,
    "name": "Haastrecht",
    "coord": {
      "lon": 4.77639,
      "lat": 52.00074
    }
  },
  {
    "id": 2755003,
    "name": "Haarlem",
    "coord": {
      "lon": 4.63683,
      "lat": 52.38084
    }
  },
  {
    "id": 2755009,
    "name": "Haaren",
    "coord": {
      "lon": 5.22222,
      "lat": 51.602501
    }
  },
  {
    "id": 2755019,
    "name": "Haansberg",
    "coord": {
      "lon": 4.93651,
      "lat": 51.57851
    }
  },
  {
    "id": 2755023,
    "name": "Haamstede",
    "coord": {
      "lon": 3.74299,
      "lat": 51.696819
    }
  },
  {
    "id": 2755030,
    "name": "Haaksbergen",
    "coord": {
      "lon": 6.73889,
      "lat": 52.15667
    }
  },
  {
    "id": 2755033,
    "name": "Haagse Beemden",
    "coord": {
      "lon": 4.7481,
      "lat": 51.611031
    }
  },
  {
    "id": 2755052,
    "name": "Grou",
    "coord": {
      "lon": 5.83333,
      "lat": 53.099998
    }
  },
  {
    "id": 2755200,
    "name": "Groote Haar",
    "coord": {
      "lon": 4.95,
      "lat": 51.849998
    }
  },
  {
    "id": 2755204,
    "name": "Grootegast",
    "coord": {
      "lon": 6.27361,
      "lat": 53.212502
    }
  },
  {
    "id": 2755249,
    "name": "Provincie Groningen",
    "coord": {
      "lon": 6.75,
      "lat": 53.25
    }
  },
  {
    "id": 2755251,
    "name": "Groningen",
    "coord": {
      "lon": 6.56667,
      "lat": 53.21917
    }
  },
  {
    "id": 2755272,
    "name": "Groesbeek",
    "coord": {
      "lon": 5.93611,
      "lat": 51.776669
    }
  },
  {
    "id": 2755281,
    "name": "Groenlo",
    "coord": {
      "lon": 6.61111,
      "lat": 52.041672
    }
  },
  {
    "id": 2755317,
    "name": "Grijpskerk",
    "coord": {
      "lon": 6.30833,
      "lat": 53.262501
    }
  },
  {
    "id": 2755348,
    "name": "Greffelkamp",
    "coord": {
      "lon": 6.12083,
      "lat": 51.952499
    }
  },
  {
    "id": 2755358,
    "name": "Grave",
    "coord": {
      "lon": 5.73882,
      "lat": 51.759022
    }
  },
  {
    "id": 2755399,
    "name": "Goutum",
    "coord": {
      "lon": 5.8037,
      "lat": 53.177341
    }
  },
  {
    "id": 2755420,
    "name": "Gouda",
    "coord": {
      "lon": 4.70833,
      "lat": 52.01667
    }
  },
  {
    "id": 2755428,
    "name": "Gorssel",
    "coord": {
      "lon": 6.20139,
      "lat": 52.201672
    }
  },
  {
    "id": 2755429,
    "name": "Gorredijk",
    "coord": {
      "lon": 6.06402,
      "lat": 53.006592
    }
  },
  {
    "id": 2755434,
    "name": "Gorinchem",
    "coord": {
      "lon": 4.97243,
      "lat": 51.836521
    }
  },
  {
    "id": 2755449,
    "name": "Goor",
    "coord": {
      "lon": 6.58611,
      "lat": 52.23333
    }
  },
  {
    "id": 2755464,
    "name": "Goirle",
    "coord": {
      "lon": 5.06667,
      "lat": 51.520828
    }
  },
  {
    "id": 2755476,
    "name": "Goes",
    "coord": {
      "lon": 3.88889,
      "lat": 51.504169
    }
  },
  {
    "id": 2755485,
    "name": "Goedereede",
    "coord": {
      "lon": 3.98056,
      "lat": 51.817501
    }
  },
  {
    "id": 2755498,
    "name": "Ginneken",
    "coord": {
      "lon": 4.7931,
      "lat": 51.565929
    }
  },
  {
    "id": 2755517,
    "name": "Giethoorn",
    "coord": {
      "lon": 6.07917,
      "lat": 52.740002
    }
  },
  {
    "id": 2755533,
    "name": "Giessenburg",
    "coord": {
      "lon": 4.89028,
      "lat": 51.85083
    }
  },
  {
    "id": 2755542,
    "name": "Gytsjerk",
    "coord": {
      "lon": 5.89502,
      "lat": 53.242931
    }
  },
  {
    "id": 2755584,
    "name": "Gennep",
    "coord": {
      "lon": 5.97361,
      "lat": 51.69833
    }
  },
  {
    "id": 2755599,
    "name": "Gendringen",
    "coord": {
      "lon": 6.37639,
      "lat": 51.873329
    }
  },
  {
    "id": 2755601,
    "name": "Genderen",
    "coord": {
      "lon": 5.0875,
      "lat": 51.735828
    }
  },
  {
    "id": 2755616,
    "name": "Geleen",
    "coord": {
      "lon": 5.82917,
      "lat": 50.974171
    }
  },
  {
    "id": 2755619,
    "name": "Geldrop",
    "coord": {
      "lon": 5.55972,
      "lat": 51.421669
    }
  },
  {
    "id": 2755633,
    "name": "Geldermalsen",
    "coord": {
      "lon": 5.28889,
      "lat": 51.880829
    }
  },
  {
    "id": 2755634,
    "name": "Provincie Gelderland",
    "coord": {
      "lon": 5.83333,
      "lat": 52.0
    }
  },
  {
    "id": 2755645,
    "name": "Geffen",
    "coord": {
      "lon": 5.46389,
      "lat": 51.740002
    }
  },
  {
    "id": 2755669,
    "name": "Geertruidenberg",
    "coord": {
      "lon": 4.85694,
      "lat": 51.701672
    }
  },
  {
    "id": 2755729,
    "name": "Garyp",
    "coord": {
      "lon": 5.96667,
      "lat": 53.166672
    }
  },
  {
    "id": 2755732,
    "name": "Garderen",
    "coord": {
      "lon": 5.71389,
      "lat": 52.230831
    }
  },
  {
    "id": 2755774,
    "name": "Gageldonk",
    "coord": {
      "lon": 4.73889,
      "lat": 51.601669
    }
  },
  {
    "id": 2755812,
    "name": "Provincie Friesland",
    "coord": {
      "lon": 5.83333,
      "lat": 53.166672
    }
  },
  {
    "id": 2755845,
    "name": "Franeker",
    "coord": {
      "lon": 5.54123,
      "lat": 53.185459
    }
  },
  {
    "id": 2755862,
    "name": "Fort",
    "coord": {
      "lon": 6.38611,
      "lat": 52.651669
    }
  },
  {
    "id": 2755873,
    "name": "Folgeren",
    "coord": {
      "lon": 6.08969,
      "lat": 53.12447
    }
  },
  {
    "id": 2755893,
    "name": "Flevowijk",
    "coord": {
      "lon": 5.91338,
      "lat": 52.54583
    }
  },
  {
    "id": 2755920,
    "name": "Ferwert",
    "coord": {
      "lon": 5.82533,
      "lat": 53.337841
    }
  },
  {
    "id": 2755982,
    "name": "Euvelgunne",
    "coord": {
      "lon": 6.60278,
      "lat": 53.215832
    }
  },
  {
    "id": 2755996,
    "name": "Etten-Leur",
    "coord": {
      "lon": 4.63726,
      "lat": 51.57056
    }
  },
  {
    "id": 2756016,
    "name": "Espelo",
    "coord": {
      "lon": 6.86667,
      "lat": 52.25
    }
  },
  {
    "id": 2756035,
    "name": "Erp",
    "coord": {
      "lon": 5.60694,
      "lat": 51.599998
    }
  },
  {
    "id": 2756039,
    "name": "Ermelo",
    "coord": {
      "lon": 5.62222,
      "lat": 52.298328
    }
  },
  {
    "id": 2756050,
    "name": "Epse",
    "coord": {
      "lon": 6.2,
      "lat": 52.224998
    }
  },
  {
    "id": 2756059,
    "name": "Epe",
    "coord": {
      "lon": 5.98333,
      "lat": 52.3475
    }
  },
  {
    "id": 2756071,
    "name": "Enschede",
    "coord": {
      "lon": 6.89583,
      "lat": 52.21833
    }
  },
  {
    "id": 2756072,
    "name": "Ens",
    "coord": {
      "lon": 5.82778,
      "lat": 52.636669
    }
  },
  {
    "id": 2756077,
    "name": "Enkhuizen",
    "coord": {
      "lon": 5.29167,
      "lat": 52.703331
    }
  },
  {
    "id": 2756100,
    "name": "Engeland",
    "coord": {
      "lon": 6.36944,
      "lat": 52.767502
    }
  },
  {
    "id": 2756114,
    "name": "Emst",
    "coord": {
      "lon": 5.97361,
      "lat": 52.31583
    }
  },
  {
    "id": 2756133,
    "name": "Emmer-Compascuum",
    "coord": {
      "lon": 7.04722,
      "lat": 52.811668
    }
  },
  {
    "id": 2756136,
    "name": "Emmen",
    "coord": {
      "lon": 6.90694,
      "lat": 52.779171
    }
  },
  {
    "id": 2756139,
    "name": "Emmeloord",
    "coord": {
      "lon": 5.74861,
      "lat": 52.710831
    }
  },
  {
    "id": 2756161,
    "name": "Elst",
    "coord": {
      "lon": 5.84167,
      "lat": 51.91917
    }
  },
  {
    "id": 2756169,
    "name": "Elsloo",
    "coord": {
      "lon": 5.77083,
      "lat": 50.949169
    }
  },
  {
    "id": 2756200,
    "name": "Ellecom",
    "coord": {
      "lon": 6.0875,
      "lat": 52.032501
    }
  },
  {
    "id": 2756229,
    "name": "Elden",
    "coord": {
      "lon": 5.88194,
      "lat": 51.958328
    }
  },
  {
    "id": 2756232,
    "name": "Elburg",
    "coord": {
      "lon": 5.84306,
      "lat": 52.447498
    }
  },
  {
    "id": 2756253,
    "name": "Eindhoven",
    "coord": {
      "lon": 5.47778,
      "lat": 51.44083
    }
  },
  {
    "id": 2756283,
    "name": "Eijsden",
    "coord": {
      "lon": 5.7177,
      "lat": 50.779999
    }
  },
  {
    "id": 2756295,
    "name": "Eibergen",
    "coord": {
      "lon": 6.64861,
      "lat": 52.099998
    }
  },
  {
    "id": 2756301,
    "name": "Egmond aan Zee",
    "coord": {
      "lon": 4.62705,
      "lat": 52.620399
    }
  },
  {
    "id": 2756342,
    "name": "Eersel",
    "coord": {
      "lon": 5.31806,
      "lat": 51.357498
    }
  },
  {
    "id": 2756349,
    "name": "Eerde",
    "coord": {
      "lon": 5.49861,
      "lat": 51.604172
    }
  },
  {
    "id": 2756351,
    "name": "Eerbeek",
    "coord": {
      "lon": 6.05833,
      "lat": 52.105
    }
  },
  {
    "id": 2756380,
    "name": "Een",
    "coord": {
      "lon": 6.39583,
      "lat": 53.076672
    }
  },
  {
    "id": 2756418,
    "name": "Eefde",
    "coord": {
      "lon": 6.225,
      "lat": 52.166672
    }
  },
  {
    "id": 2756426,
    "name": "Ederveen",
    "coord": {
      "lon": 5.57778,
      "lat": 52.063332
    }
  },
  {
    "id": 2756429,
    "name": "Ede",
    "coord": {
      "lon": 5.65833,
      "lat": 52.033329
    }
  },
  {
    "id": 2756431,
    "name": "Edam",
    "coord": {
      "lon": 5.04805,
      "lat": 52.51215
    }
  },
  {
    "id": 2756438,
    "name": "Echtenerbrug",
    "coord": {
      "lon": 5.82147,
      "lat": 52.87141
    }
  },
  {
    "id": 2756451,
    "name": "Dwingeloo",
    "coord": {
      "lon": 6.36944,
      "lat": 52.834171
    }
  },
  {
    "id": 2756504,
    "name": "Duivendrecht",
    "coord": {
      "lon": 4.93964,
      "lat": 52.329411
    }
  },
  {
    "id": 2756507,
    "name": "Duiven",
    "coord": {
      "lon": 6.01389,
      "lat": 51.946671
    }
  },
  {
    "id": 2756539,
    "name": "Druten",
    "coord": {
      "lon": 5.60556,
      "lat": 51.888329
    }
  },
  {
    "id": 2756559,
    "name": "Dronten",
    "coord": {
      "lon": 5.71806,
      "lat": 52.525002
    }
  },
  {
    "id": 2756561,
    "name": "Dronryp",
    "coord": {
      "lon": 5.65,
      "lat": 53.200001
    }
  },
  {
    "id": 2756567,
    "name": "Drogeham",
    "coord": {
      "lon": 6.11183,
      "lat": 53.202129
    }
  },
  {
    "id": 2756569,
    "name": "Drimmelen",
    "coord": {
      "lon": 4.80417,
      "lat": 51.706669
    }
  },
  {
    "id": 2756584,
    "name": "Driemond",
    "coord": {
      "lon": 5.01667,
      "lat": 52.305828
    }
  },
  {
    "id": 2756591,
    "name": "Driel",
    "coord": {
      "lon": 5.81389,
      "lat": 51.959171
    }
  },
  {
    "id": 2756598,
    "name": "Driehuis",
    "coord": {
      "lon": 4.6375,
      "lat": 52.446671
    }
  },
  {
    "id": 2756619,
    "name": "Driebergen-Rijsenburg",
    "coord": {
      "lon": 5.28056,
      "lat": 52.053329
    }
  },
  {
    "id": 2756631,
    "name": "Provincie Drenthe",
    "coord": {
      "lon": 6.58333,
      "lat": 52.833328
    }
  },
  {
    "id": 2756642,
    "name": "Drachtstercompagnie",
    "coord": {
      "lon": 6.14153,
      "lat": 53.134621
    }
  },
  {
    "id": 2756644,
    "name": "Drachten",
    "coord": {
      "lon": 6.0989,
      "lat": 53.112541
    }
  },
  {
    "id": 2756669,
    "name": "Dordrecht",
    "coord": {
      "lon": 4.67361,
      "lat": 51.810001
    }
  },
  {
    "id": 2756673,
    "name": "Doorwerth",
    "coord": {
      "lon": 5.79722,
      "lat": 51.979172
    }
  },
  {
    "id": 2756683,
    "name": "Doornenburg",
    "coord": {
      "lon": 6.0,
      "lat": 51.889999
    }
  },
  {
    "id": 2756686,
    "name": "Doorn",
    "coord": {
      "lon": 5.34571,
      "lat": 52.033428
    }
  },
  {
    "id": 2756723,
    "name": "Dongen",
    "coord": {
      "lon": 4.93889,
      "lat": 51.626671
    }
  },
  {
    "id": 2756746,
    "name": "Domburg",
    "coord": {
      "lon": 3.49583,
      "lat": 51.563332
    }
  },
  {
    "id": 2756759,
    "name": "Dokkum",
    "coord": {
      "lon": 5.99698,
      "lat": 53.322239
    }
  },
  {
    "id": 2756767,
    "name": "Doetinchem",
    "coord": {
      "lon": 6.28889,
      "lat": 51.965
    }
  },
  {
    "id": 2756772,
    "name": "Doesburg",
    "coord": {
      "lon": 6.13889,
      "lat": 52.012501
    }
  },
  {
    "id": 2756774,
    "name": "Doenrade",
    "coord": {
      "lon": 5.90694,
      "lat": 50.967499
    }
  },
  {
    "id": 2756787,
    "name": "Dirksland",
    "coord": {
      "lon": 4.1,
      "lat": 51.749168
    }
  },
  {
    "id": 2756800,
    "name": "Dinteloord",
    "coord": {
      "lon": 4.36944,
      "lat": 51.634998
    }
  },
  {
    "id": 2756865,
    "name": "Dieren",
    "coord": {
      "lon": 6.1,
      "lat": 52.052502
    }
  },
  {
    "id": 2756878,
    "name": "Diepenheim",
    "coord": {
      "lon": 6.55556,
      "lat": 52.200001
    }
  },
  {
    "id": 2756888,
    "name": "Diemen",
    "coord": {
      "lon": 4.96256,
      "lat": 52.339642
    }
  },
  {
    "id": 2756987,
    "name": "Deventer",
    "coord": {
      "lon": 6.16389,
      "lat": 52.255001
    }
  },
  {
    "id": 2757041,
    "name": "De Steeg",
    "coord": {
      "lon": 6.06111,
      "lat": 52.02
    }
  },
  {
    "id": 2757167,
    "name": "De Pan",
    "coord": {
      "lon": 4.4,
      "lat": 52.172501
    }
  },
  {
    "id": 2757194,
    "name": "Den Oever",
    "coord": {
      "lon": 5.03079,
      "lat": 52.933529
    }
  },
  {
    "id": 2757220,
    "name": "Den Helder",
    "coord": {
      "lon": 4.75933,
      "lat": 52.959881
    }
  },
  {
    "id": 2757224,
    "name": "Den Ham",
    "coord": {
      "lon": 6.49583,
      "lat": 52.465832
    }
  },
  {
    "id": 2757244,
    "name": "Den Burg",
    "coord": {
      "lon": 4.79722,
      "lat": 53.054169
    }
  },
  {
    "id": 2757336,
    "name": "De Lier",
    "coord": {
      "lon": 4.24861,
      "lat": 51.974998
    }
  },
  {
    "id": 2757340,
    "name": "Delfzijl",
    "coord": {
      "lon": 6.91806,
      "lat": 53.330002
    }
  },
  {
    "id": 2757345,
    "name": "Delft",
    "coord": {
      "lon": 4.35556,
      "lat": 52.006672
    }
  },
  {
    "id": 2757347,
    "name": "Delfshaven",
    "coord": {
      "lon": 4.45315,
      "lat": 51.904881
    }
  },
  {
    "id": 2757370,
    "name": "Delden",
    "coord": {
      "lon": 6.71111,
      "lat": 52.259998
    }
  },
  {
    "id": 2757374,
    "name": "De Laar",
    "coord": {
      "lon": 5.86395,
      "lat": 51.948441
    }
  },
  {
    "id": 2757475,
    "name": "Deinum",
    "coord": {
      "lon": 5.72431,
      "lat": 53.191818
    }
  },
  {
    "id": 2757493,
    "name": "De Horst",
    "coord": {
      "lon": 5.96806,
      "lat": 51.77417
    }
  },
  {
    "id": 2757685,
    "name": "De Doornakkers",
    "coord": {
      "lon": 5.50887,
      "lat": 51.438438
    }
  },
  {
    "id": 2757698,
    "name": "Dedemsvaart",
    "coord": {
      "lon": 6.45833,
      "lat": 52.599998
    }
  },
  {
    "id": 2757783,
    "name": "De Bilt",
    "coord": {
      "lon": 5.18056,
      "lat": 52.110001
    }
  },
  {
    "id": 2757838,
    "name": "Damwâld",
    "coord": {
      "lon": 5.99785,
      "lat": 53.290459
    }
  },
  {
    "id": 2757850,
    "name": "Dalfsen",
    "coord": {
      "lon": 6.25694,
      "lat": 52.511669
    }
  },
  {
    "id": 2757857,
    "name": "Dalen",
    "coord": {
      "lon": 6.75556,
      "lat": 52.699169
    }
  },
  {
    "id": 2757872,
    "name": "Culemborg",
    "coord": {
      "lon": 5.22778,
      "lat": 51.955002
    }
  },
  {
    "id": 2757874,
    "name": "Cuijk",
    "coord": {
      "lon": 5.87917,
      "lat": 51.730831
    }
  },
  {
    "id": 2757890,
    "name": "Cranendonck",
    "coord": {
      "lon": 5.58889,
      "lat": 51.304169
    }
  },
  {
    "id": 2757937,
    "name": "Coevorden",
    "coord": {
      "lon": 6.74046,
      "lat": 52.66103
    }
  },
  {
    "id": 2757938,
    "name": "Coevering",
    "coord": {
      "lon": 5.57463,
      "lat": 51.417419
    }
  },
  {
    "id": 2757991,
    "name": "Castricum",
    "coord": {
      "lon": 4.66944,
      "lat": 52.548328
    }
  },
  {
    "id": 2758007,
    "name": "Capelle-West",
    "coord": {
      "lon": 4.56667,
      "lat": 51.916672
    }
  },
  {
    "id": 2758012,
    "name": "Capelle aan den IJssel",
    "coord": {
      "lon": 4.57778,
      "lat": 51.929169
    }
  },
  {
    "id": 2758064,
    "name": "Bussum",
    "coord": {
      "lon": 5.16111,
      "lat": 52.273331
    }
  },
  {
    "id": 2758081,
    "name": "Burgh",
    "coord": {
      "lon": 3.73333,
      "lat": 51.689171
    }
  },
  {
    "id": 2758086,
    "name": "Burgersdijk",
    "coord": {
      "lon": 4.26111,
      "lat": 51.96833
    }
  },
  {
    "id": 2758104,
    "name": "Bunschoten",
    "coord": {
      "lon": 5.37884,
      "lat": 52.243038
    }
  },
  {
    "id": 2758106,
    "name": "Bunnik",
    "coord": {
      "lon": 5.19861,
      "lat": 52.066669
    }
  },
  {
    "id": 2758131,
    "name": "Buitenpost",
    "coord": {
      "lon": 6.14483,
      "lat": 53.251659
    }
  },
  {
    "id": 2758174,
    "name": "Brunssum",
    "coord": {
      "lon": 5.97083,
      "lat": 50.946671
    }
  },
  {
    "id": 2758177,
    "name": "Brummen",
    "coord": {
      "lon": 6.15556,
      "lat": 52.09
    }
  },
  {
    "id": 2758186,
    "name": "Bruinisse",
    "coord": {
      "lon": 4.09444,
      "lat": 51.661671
    }
  },
  {
    "id": 2758239,
    "name": "Broeksterwâld",
    "coord": {
      "lon": 5.99648,
      "lat": 53.274658
    }
  },
  {
    "id": 2758245,
    "name": "Broek op Langedijk",
    "coord": {
      "lon": 4.80556,
      "lat": 52.674171
    }
  },
  {
    "id": 2758258,
    "name": "Broek in Waterland",
    "coord": {
      "lon": 4.99583,
      "lat": 52.43417
    }
  },
  {
    "id": 2758275,
    "name": "Broekhem",
    "coord": {
      "lon": 5.82069,
      "lat": 50.871189
    }
  },
  {
    "id": 2758309,
    "name": "Britsum",
    "coord": {
      "lon": 5.78576,
      "lat": 53.25428
    }
  },
  {
    "id": 2758326,
    "name": "Brielle",
    "coord": {
      "lon": 4.1625,
      "lat": 51.901669
    }
  },
  {
    "id": 2758333,
    "name": "Breukelen",
    "coord": {
      "lon": 5.00139,
      "lat": 52.174171
    }
  },
  {
    "id": 2758336,
    "name": "Breugel",
    "coord": {
      "lon": 5.51111,
      "lat": 51.517502
    }
  },
  {
    "id": 2758391,
    "name": "Bredeweg",
    "coord": {
      "lon": 5.94189,
      "lat": 51.760189
    }
  },
  {
    "id": 2758393,
    "name": "Bredevoort",
    "coord": {
      "lon": 6.62083,
      "lat": 51.941669
    }
  },
  {
    "id": 2758401,
    "name": "Breda",
    "coord": {
      "lon": 4.77596,
      "lat": 51.586559
    }
  },
  {
    "id": 2758405,
    "name": "Brandwijk",
    "coord": {
      "lon": 4.81389,
      "lat": 51.890831
    }
  },
  {
    "id": 2758432,
    "name": "Braband",
    "coord": {
      "lon": 4.33333,
      "lat": 51.833328
    }
  },
  {
    "id": 2758460,
    "name": "Boxtel",
    "coord": {
      "lon": 5.32917,
      "lat": 51.590832
    }
  },
  {
    "id": 2758462,
    "name": "Boxmeer",
    "coord": {
      "lon": 5.94722,
      "lat": 51.646671
    }
  },
  {
    "id": 2758490,
    "name": "Boven-Leeuwen",
    "coord": {
      "lon": 5.55278,
      "lat": 51.884998
    }
  },
  {
    "id": 2758500,
    "name": "Boven-Hardinxveld",
    "coord": {
      "lon": 4.88194,
      "lat": 51.82333
    }
  },
  {
    "id": 2758547,
    "name": "Boskoop",
    "coord": {
      "lon": 4.65556,
      "lat": 52.075001
    }
  },
  {
    "id": 2758549,
    "name": "Boskamp",
    "coord": {
      "lon": 6.12778,
      "lat": 52.33083
    }
  },
  {
    "id": 2758587,
    "name": "Borssele",
    "coord": {
      "lon": 3.73472,
      "lat": 51.423328
    }
  },
  {
    "id": 2758598,
    "name": "Borne",
    "coord": {
      "lon": 6.7482,
      "lat": 52.301361
    }
  },
  {
    "id": 2758602,
    "name": "Born",
    "coord": {
      "lon": 5.80972,
      "lat": 51.03167
    }
  },
  {
    "id": 2758621,
    "name": "Borger",
    "coord": {
      "lon": 6.79306,
      "lat": 52.923328
    }
  },
  {
    "id": 2758626,
    "name": "Borculo",
    "coord": {
      "lon": 6.52222,
      "lat": 52.115829
    }
  },
  {
    "id": 2758633,
    "name": "Boornbergum",
    "coord": {
      "lon": 6.04578,
      "lat": 53.08284
    }
  },
  {
    "id": 2758652,
    "name": "Bonrepas",
    "coord": {
      "lon": 4.84444,
      "lat": 51.963329
    }
  },
  {
    "id": 2758663,
    "name": "Bong",
    "coord": {
      "lon": 6.17083,
      "lat": 51.431671
    }
  },
  {
    "id": 2758682,
    "name": "Bolsward",
    "coord": {
      "lon": 5.53176,
      "lat": 53.06554
    }
  },
  {
    "id": 2758748,
    "name": "Boelenslaan",
    "coord": {
      "lon": 6.14479,
      "lat": 53.161701
    }
  },
  {
    "id": 2758759,
    "name": "Boekel",
    "coord": {
      "lon": 5.675,
      "lat": 51.603329
    }
  },
  {
    "id": 2758765,
    "name": "Bodegraven",
    "coord": {
      "lon": 4.75,
      "lat": 52.0825
    }
  },
  {
    "id": 2758777,
    "name": "Blokzijl",
    "coord": {
      "lon": 5.96111,
      "lat": 52.726669
    }
  },
  {
    "id": 2758803,
    "name": "Bloemendaal",
    "coord": {
      "lon": 4.6944,
      "lat": 52.028782
    }
  },
  {
    "id": 2758804,
    "name": "Bloemendaal",
    "coord": {
      "lon": 4.62222,
      "lat": 52.4025
    }
  },
  {
    "id": 2758838,
    "name": "Bleiswijk",
    "coord": {
      "lon": 4.53194,
      "lat": 52.01083
    }
  },
  {
    "id": 2758868,
    "name": "Blaricum",
    "coord": {
      "lon": 5.24167,
      "lat": 52.272499
    }
  },
  {
    "id": 2758878,
    "name": "Bladel",
    "coord": {
      "lon": 5.22083,
      "lat": 51.368328
    }
  },
  {
    "id": 2758895,
    "name": "Burdaard",
    "coord": {
      "lon": 5.87897,
      "lat": 53.294209
    }
  },
  {
    "id": 2758930,
    "name": "Bilgaard",
    "coord": {
      "lon": 5.79574,
      "lat": 53.2155
    }
  },
  {
    "id": 2758974,
    "name": "Biesdonk",
    "coord": {
      "lon": 4.78333,
      "lat": 51.599998
    }
  },
  {
    "id": 2758991,
    "name": "Bieberg",
    "coord": {
      "lon": 4.79186,
      "lat": 51.559139
    }
  },
  {
    "id": 2758992,
    "name": "Biddinghuizen",
    "coord": {
      "lon": 5.69306,
      "lat": 52.455002
    }
  },
  {
    "id": 2758998,
    "name": "Beverwijk",
    "coord": {
      "lon": 4.65694,
      "lat": 52.48333
    }
  },
  {
    "id": 2759016,
    "name": "Beuningen",
    "coord": {
      "lon": 5.76667,
      "lat": 51.860828
    }
  },
  {
    "id": 2759040,
    "name": "Best",
    "coord": {
      "lon": 5.39028,
      "lat": 51.5075
    }
  },
  {
    "id": 2759057,
    "name": "Berltsum",
    "coord": {
      "lon": 5.65101,
      "lat": 53.243698
    }
  },
  {
    "id": 2759089,
    "name": "Berkel",
    "coord": {
      "lon": 4.48723,
      "lat": 52.003059
    }
  },
  {
    "id": 2759103,
    "name": "Burgum",
    "coord": {
      "lon": 5.99009,
      "lat": 53.192429
    }
  },
  {
    "id": 2759113,
    "name": "Bergschenhoek",
    "coord": {
      "lon": 4.49861,
      "lat": 51.990002
    }
  },
  {
    "id": 2759126,
    "name": "Berghem",
    "coord": {
      "lon": 5.56827,
      "lat": 51.769909
    }
  },
  {
    "id": 2759129,
    "name": "Bergharen",
    "coord": {
      "lon": 5.66944,
      "lat": 51.85083
    }
  },
  {
    "id": 2759131,
    "name": "Bergeijk",
    "coord": {
      "lon": 5.35,
      "lat": 51.316669
    }
  },
  {
    "id": 2759132,
    "name": "Bergeijk",
    "coord": {
      "lon": 5.35833,
      "lat": 51.319172
    }
  },
  {
    "id": 2759145,
    "name": "Bergen op Zoom",
    "coord": {
      "lon": 4.29167,
      "lat": 51.494999
    }
  },
  {
    "id": 2759147,
    "name": "Berg en Dal",
    "coord": {
      "lon": 5.91667,
      "lat": 51.821671
    }
  },
  {
    "id": 2759163,
    "name": "Berg",
    "coord": {
      "lon": 5.77083,
      "lat": 51.004169
    }
  },
  {
    "id": 2759164,
    "name": "Berg",
    "coord": {
      "lon": 5.78333,
      "lat": 50.861671
    }
  },
  {
    "id": 2759178,
    "name": "Benthuizen",
    "coord": {
      "lon": 4.54444,
      "lat": 52.077499
    }
  },
  {
    "id": 2759197,
    "name": "Bennekom",
    "coord": {
      "lon": 5.67639,
      "lat": 51.998329
    }
  },
  {
    "id": 2759199,
    "name": "Bennebroek",
    "coord": {
      "lon": 4.59861,
      "lat": 52.320831
    }
  },
  {
    "id": 2759286,
    "name": "Beesel",
    "coord": {
      "lon": 6.03889,
      "lat": 51.26833
    }
  },
  {
    "id": 2759342,
    "name": "Beekbergen",
    "coord": {
      "lon": 5.96389,
      "lat": 52.16
    }
  },
  {
    "id": 2759350,
    "name": "Beek",
    "coord": {
      "lon": 5.79722,
      "lat": 50.94083
    }
  },
  {
    "id": 2759356,
    "name": "Bedum",
    "coord": {
      "lon": 6.60278,
      "lat": 53.300831
    }
  },
  {
    "id": 2759397,
    "name": "Barsingerhorn",
    "coord": {
      "lon": 4.86389,
      "lat": 52.785
    }
  },
  {
    "id": 2759407,
    "name": "Barneveld",
    "coord": {
      "lon": 5.58472,
      "lat": 52.139999
    }
  },
  {
    "id": 2759426,
    "name": "Barendrecht",
    "coord": {
      "lon": 4.53472,
      "lat": 51.85667
    }
  },
  {
    "id": 2759429,
    "name": "Barchem",
    "coord": {
      "lon": 6.44306,
      "lat": 52.124168
    }
  },
  {
    "id": 2759472,
    "name": "Balk",
    "coord": {
      "lon": 5.57964,
      "lat": 52.89756
    }
  },
  {
    "id": 2759544,
    "name": "Baarn",
    "coord": {
      "lon": 5.2875,
      "lat": 52.21167
    }
  },
  {
    "id": 2759554,
    "name": "Baarle-Nassau",
    "coord": {
      "lon": 4.92917,
      "lat": 51.447498
    }
  },
  {
    "id": 2759581,
    "name": "Baak",
    "coord": {
      "lon": 6.22778,
      "lat": 52.077499
    }
  },
  {
    "id": 2759594,
    "name": "Axel",
    "coord": {
      "lon": 3.90833,
      "lat": 51.26667
    }
  },
  {
    "id": 2759611,
    "name": "Augustinusga",
    "coord": {
      "lon": 6.1617,
      "lat": 53.21785
    }
  },
  {
    "id": 2759621,
    "name": "Asten",
    "coord": {
      "lon": 5.74861,
      "lat": 51.404171
    }
  },
  {
    "id": 2759633,
    "name": "Assen",
    "coord": {
      "lon": 6.5625,
      "lat": 52.99667
    }
  },
  {
    "id": 2759661,
    "name": "Arnhem",
    "coord": {
      "lon": 5.91111,
      "lat": 51.98
    }
  },
  {
    "id": 2759684,
    "name": "Arcen",
    "coord": {
      "lon": 6.18056,
      "lat": 51.476669
    }
  },
  {
    "id": 2759687,
    "name": "Appingedam",
    "coord": {
      "lon": 6.85833,
      "lat": 53.321671
    }
  },
  {
    "id": 2759706,
    "name": "Apeldoorn",
    "coord": {
      "lon": 5.96944,
      "lat": 52.209999
    }
  },
  {
    "id": 2759746,
    "name": "Anloo",
    "coord": {
      "lon": 6.70139,
      "lat": 53.04417
    }
  },
  {
    "id": 2759757,
    "name": "Anjum",
    "coord": {
      "lon": 6.12698,
      "lat": 53.374748
    }
  },
  {
    "id": 2759781,
    "name": "Andelst",
    "coord": {
      "lon": 5.72917,
      "lat": 51.908329
    }
  },
  {
    "id": 2759794,
    "name": "Amsterdam",
    "coord": {
      "lon": 4.88969,
      "lat": 52.374031
    }
  },
  {
    "id": 2759796,
    "name": "Amstenrade",
    "coord": {
      "lon": 5.92361,
      "lat": 50.939171
    }
  },
  {
    "id": 2759798,
    "name": "Amstelveen",
    "coord": {
      "lon": 4.86389,
      "lat": 52.300831
    }
  },
  {
    "id": 2759821,
    "name": "Amersfoort",
    "coord": {
      "lon": 5.3875,
      "lat": 52.154999
    }
  },
  {
    "id": 2759828,
    "name": "Amerongen",
    "coord": {
      "lon": 5.45972,
      "lat": 52.002499
    }
  },
  {
    "id": 2759875,
    "name": "Alphen aan den Rijn",
    "coord": {
      "lon": 4.65546,
      "lat": 52.129169
    }
  },
  {
    "id": 2759878,
    "name": "Almkerk",
    "coord": {
      "lon": 4.95972,
      "lat": 51.770828
    }
  },
  {
    "id": 2759879,
    "name": "Almere Stad",
    "coord": {
      "lon": 5.21413,
      "lat": 52.370251
    }
  },
  {
    "id": 2759880,
    "name": "Almere Haven",
    "coord": {
      "lon": 5.21919,
      "lat": 52.335758
    }
  },
  {
    "id": 2759884,
    "name": "Almen",
    "coord": {
      "lon": 6.3,
      "lat": 52.158329
    }
  },
  {
    "id": 2759887,
    "name": "Almelo",
    "coord": {
      "lon": 6.6625,
      "lat": 52.35667
    }
  },
  {
    "id": 2759899,
    "name": "Alkmaar",
    "coord": {
      "lon": 4.74861,
      "lat": 52.631672
    }
  },
  {
    "id": 2759915,
    "name": "Alblasserdam",
    "coord": {
      "lon": 4.66111,
      "lat": 51.865829
    }
  },
  {
    "id": 2759922,
    "name": "Akkrum",
    "coord": {
      "lon": 5.83087,
      "lat": 53.05024
    }
  },
  {
    "id": 2759961,
    "name": "Aduard",
    "coord": {
      "lon": 6.45972,
      "lat": 53.256672
    }
  },
  {
    "id": 2760055,
    "name": "Abtswoude",
    "coord": {
      "lon": 4.35556,
      "lat": 51.979172
    }
  },
  {
    "id": 2760123,
    "name": "Aalten",
    "coord": {
      "lon": 6.58056,
      "lat": 51.924999
    }
  },
  {
    "id": 2760134,
    "name": "Aalsmeer",
    "coord": {
      "lon": 4.75972,
      "lat": 52.259171
    }
  },
  {
    "id": 2760144,
    "name": "Aalburg",
    "coord": {
      "lon": 5.13156,
      "lat": 51.754822
    }
  },
  {
    "id": 3319179,
    "name": "Provincie Flevoland",
    "coord": {
      "lon": 5.66667,
      "lat": 52.533329
    }
  },
  {
    "id": 6251994,
    "name": "Klundert",
    "coord": {
      "lon": 4.53461,
      "lat": 51.662971
    }
  },
  {
    "id": 6324403,
    "name": "Camminghaburen",
    "coord": {
      "lon": 5.84318,
      "lat": 53.209728
    }
  },
  {
    "id": 6544222,
    "name": "Oude IJsselstreek",
    "coord": {
      "lon": 6.38078,
      "lat": 51.899632
    }
  },
  {
    "id": 6544228,
    "name": "Oost Gelre",
    "coord": {
      "lon": 6.54958,
      "lat": 52.00425
    }
  },
  {
    "id": 6544286,
    "name": "Berkelland",
    "coord": {
      "lon": 6.56748,
      "lat": 52.10606
    }
  },
  {
    "id": 6544755,
    "name": "Baakwoning",
    "coord": {
      "lon": 4.18889,
      "lat": 52.005001
    }
  },
  {
    "id": 6544829,
    "name": "Koningshoeven",
    "coord": {
      "lon": 5.1125,
      "lat": 51.549999
    }
  },
  {
    "id": 6544855,
    "name": "Op den Bosch",
    "coord": {
      "lon": 6.02083,
      "lat": 51.583328
    }
  },
  {
    "id": 6544876,
    "name": "Friese Buurt",
    "coord": {
      "lon": 4.77361,
      "lat": 52.921669
    }
  },
  {
    "id": 6544881,
    "name": "Amsterdam-Zuidoost",
    "coord": {
      "lon": 4.97222,
      "lat": 52.307499
    }
  },
  {
    "id": 6621526,
    "name": "Binnenstad",
    "coord": {
      "lon": 5.96712,
      "lat": 52.211971
    }
  },
  {
    "id": 6621532,
    "name": "De Heeze",
    "coord": {
      "lon": 5.95365,
      "lat": 52.200611
    }
  },
  {
    "id": 6692371,
    "name": "Jubbega",
    "coord": {
      "lon": 6.12183,
      "lat": 53.00396
    }
  },
  {
    "id": 6695503,
    "name": "Meerhoven",
    "coord": {
      "lon": 5.41102,
      "lat": 51.442669
    }
  },
  {
    "id": 6697777,
    "name": "Weidevenne",
    "coord": {
      "lon": 4.93732,
      "lat": 52.49527
    }
  },
  {
    "id": 6697850,
    "name": "Hoek",
    "coord": {
      "lon": 5.80192,
      "lat": 53.204552
    }
  },
  {
    "id": 6697854,
    "name": "De Knipe",
    "coord": {
      "lon": 5.97116,
      "lat": 52.968288
    }
  },
  {
    "id": 6698635,
    "name": "Lunetten",
    "coord": {
      "lon": 5.13474,
      "lat": 52.061779
    }
  },
  {
    "id": 6698718,
    "name": "Aarle-Rixtel",
    "coord": {
      "lon": 5.63839,
      "lat": 51.509762
    }
  },
  {
    "id": 6929953,
    "name": "Kelpen-Oler",
    "coord": {
      "lon": 5.82602,
      "lat": 51.21817
    }
  },
  {
    "id": 6929980,
    "name": "Muschberg en Geestenberg",
    "coord": {
      "lon": 5.52329,
      "lat": 51.44384
    }
  },
  {
    "id": 6929984,
    "name": "Villapark",
    "coord": {
      "lon": 5.49385,
      "lat": 51.441441
    }
  },
  {
    "id": 6929985,
    "name": "Lakerlopen",
    "coord": {
      "lon": 5.50106,
      "lat": 51.437908
    }
  },
  {
    "id": 6929992,
    "name": "Berkel en Rodenrijs",
    "coord": {
      "lon": 4.47865,
      "lat": 51.99313
    }
  },
  {
    "id": 6941548,
    "name": "Ypenburg",
    "coord": {
      "lon": 4.36981,
      "lat": 52.040981
    }
  },
  {
    "id": 6948945,
    "name": "Oranjewijk",
    "coord": {
      "lon": 4.65374,
      "lat": 52.049221
    }
  },
  {
    "id": 6948946,
    "name": "Vondelwijk",
    "coord": {
      "lon": 4.65314,
      "lat": 52.05497
    }
  },
  {
    "id": 6948947,
    "name": "Groenswaard",
    "coord": {
      "lon": 4.64541,
      "lat": 52.05154
    }
  },
  {
    "id": 6950811,
    "name": "Randenbroek",
    "coord": {
      "lon": 5.4012,
      "lat": 52.148628
    }
  },
  {
    "id": 7118109,
    "name": "Velserbroek",
    "coord": {
      "lon": 4.66155,
      "lat": 52.432831
    }
  },
  {
    "id": 7626528,
    "name": "agz installatietechniek",
    "coord": {
      "lon": 4.81981,
      "lat": 52.64555
    }
  },
  {
    "id": 7648382,
    "name": "Weesperzijde",
    "coord": {
      "lon": 4.91055,
      "lat": 52.353008
    }
  },
  {
    "id": 7870365,
    "name": "Hoogkamp",
    "coord": {
      "lon": 5.88026,
      "lat": 51.9963
    }
  },
  {
    "id": 7870372,
    "name": "Gulden Bodem",
    "coord": {
      "lon": 5.8908,
      "lat": 51.994282
    }
  },
  {
    "id": 7870373,
    "name": "Sterrenberg",
    "coord": {
      "lon": 5.88387,
      "lat": 51.9935
    }
  },
  {
    "id": 7870374,
    "name": "Burgemeesterswijk",
    "coord": {
      "lon": 5.89597,
      "lat": 51.989429
    }
  },
  {
    "id": 7874246,
    "name": "Musiskwartier",
    "coord": {
      "lon": 5.91203,
      "lat": 51.982712
    }
  }
]
